CREATE (st175NHarvardSt:Station {name: "175 N Harvard St", latitude: 42.363796, longitude: -71.129164, totaldocks: 17}),
(st2HummingbirdLaneatOlmstedGreen:Station {name: "2 Hummingbird Lane at Olmsted Green", latitude: 42.28887, longitude: -71.095003, totaldocks: 17}),
(st555MetropolitanAve:Station {name: "555 Metropolitan Ave", latitude: 42.2681, longitude: -71.11924, totaldocks: 18}),
(st606AmericanLegionHwyatCanterburySt:Station {name: "606 American Legion Hwy at Canterbury St", latitude: 42.28578, longitude: -71.109725, totaldocks: 18}),
(st645SummerSt:Station {name: "645 Summer St", latitude: 42.34178089, longitude: -71.03987017, totaldocks: 19}),
(st700CommonwealthAve:Station {name: "700 Commonwealth Ave.", latitude: 42.34960945, longitude: -71.10391524, totaldocks: 16}),
(stAdamsBranchLibrary:Station {name: "Adams Branch Library", latitude: 42.286011, longitude: -71.054689, totaldocks: 0}),
(stAdamsStatLonsdaleSt:Station {name: "Adams St at Lonsdale St", latitude: 42.29167943, longitude: -71.05726346, totaldocks: 0}),
(stAddisonStatSaratogaSt:Station {name: "Addison St at Saratoga St", latitude: 42.38518147, longitude: -71.0151367, totaldocks: 0}),
(stAirportTStopBremenStatBrooksSt:Station {name: "Airport T Stop - Bremen St at Brooks St", latitude: 42.37410288, longitude: -71.03276432, totaldocks: 11}),
(stAlbanyStatEBrooklineSt:Station {name: "Albany St at E. Brookline St", latitude: 42.33664795, longitude: -71.0689446, totaldocks: 15}),
(stAmericanLegionHwyatCumminsHwy:Station {name: "American Legion Hwy at Cummins Hwy", latitude: 42.27881158, longitude: -71.11687703, totaldocks: 15}),
(stAmericanLegionHwyatHydeParkAve:Station {name: "American Legion Hwy at Hyde Park Ave", latitude: 42.27265394, longitude: -71.11990392, totaldocks: 18}),
(stAndrewTStopDorchesterAveatDexterSt:Station {name: "Andrew T Stop - Dorchester Ave at Dexter St", latitude: 42.33073333, longitude: -71.05699851, totaldocks: 0}),
(stAquariumTStop200AtlanticAve:Station {name: "Aquarium T Stop - 200 Atlantic Ave", latitude: 42.35991176, longitude: -71.05142981, totaldocks: 23}),
(stArchStatFranklinSt:Station {name: "Arch St at Franklin St", latitude: 42.35533502, longitude: -71.05822917, totaldocks: 0}),
(stArchdaleRdatWashingtonSt:Station {name: "Archdale Rd at Washington St", latitude: 42.29266593, longitude: -71.12119539, totaldocks: 0}),
(stAshmontTStop:Station {name: "Ashmont T Stop", latitude: 42.2856944, longitude: -71.0641389, totaldocks: 15}),
(stBUCentral725CommAve:Station {name: "B.U. Central - 725 Comm. Ave.", latitude: 42.350406, longitude: -71.108279, totaldocks: 11}),
(stBackBayTStopDartmouthStatStuartSt:Station {name: "Back Bay T Stop - Dartmouth St at Stuart St", latitude: 42.34807412, longitude: -71.07657015, totaldocks: 19}),
(stBartlettStatJohnElliotSq:Station {name: "Bartlett St at John Elliot Sq", latitude: 42.3294633, longitude: -71.0901582, totaldocks: 15}),
(stBeaconStatCharlesSt:Station {name: "Beacon St at Charles St", latitude: 42.356052, longitude: -71.069849, totaldocks: 0}),
(stBeaconStatMassachusettsAve:Station {name: "Beacon St at Massachusetts Ave", latitude: 42.35082681, longitude: -71.08981088, totaldocks: 0}),
(stBelgradeAveatWalworthSt:Station {name: "Belgrade Ave at Walworth St", latitude: 42.28634589, longitude: -71.1367213, totaldocks: 15}),
(stBellevueTStop:Station {name: "Bellevue T Stop", latitude: 42.28611421, longitude: -71.14636928, totaldocks: 0}),
(stBenningtonStatByronSt:Station {name: "Bennington St at Byron St", latitude: 42.38353252, longitude: -71.01619095, totaldocks: 15}),
(stBenningtonStatConstitutionBeach:Station {name: "Bennington St at Constitution Beach", latitude: 42.38522394, longitude: -71.01063069, totaldocks: 17}),
(stBlossomStatCharlesSt:Station {name: "Blossom St at Charles St", latitude: 42.36435589, longitude: -71.06959369, totaldocks: 15}),
(stBlueHillAveatAlmontSt:Station {name: "Blue Hill Ave at Almont St", latitude: 42.27462067, longitude: -71.09372552, totaldocks: 19}),
(stBlueHillAveatHavelockSt:Station {name: "Blue Hill Ave at Havelock St", latitude: 42.286012, longitude: -71.090986, totaldocks: 18}),
(stBlueHillAveatSouthwoodSt:Station {name: "Blue Hill Ave at Southwood St", latitude: 42.31786021, longitude: -71.07798629, totaldocks: 0}),
(stBostonCityHall28StateSt:Station {name: "Boston City Hall - 28 State St", latitude: 42.35892, longitude: -71.057629, totaldocks: 25}),
(stBostonConventionandExhibitionCenterSummerStatWestSideDr:Station {name: "Boston Convention and Exhibition Center - Summer St at West Side Dr", latitude: 42.34776345, longitude: -71.04535997, totaldocks: 23}),
(stBostonEast126BorderSt:Station {name: "Boston East - 126 Border St", latitude: 42.37331213, longitude: -71.04102008, totaldocks: 15}),
(stBostonLanding:Station {name: "Boston Landing", latitude: 42.35656092, longitude: -71.14167538, totaldocks: 7}),
(stBostonMedicalCenterEConcordStatHarrisonAve:Station {name: "Boston Medical Center - E Concord St at Harrison Ave", latitude: 42.33639915, longitude: -71.07306711, totaldocks: 19}),
(stBowdoinStatQuincySt:Station {name: "Bowdoin St at Quincy St", latitude: 42.30785224, longitude: -71.06512249, totaldocks: 15}),
(stBoylstonStatBerkeleySt:Station {name: "Boylston St at Berkeley St", latitude: 42.35114198, longitude: -71.07329249, totaldocks: 15}),
(stBoylstonStatCharlesSt:Station {name: "Boylston St at Charles St", latitude: 42.35257609, longitude: -71.06764405, totaldocks: 31}),
(stBoylstonStatDartmouthSt:Station {name: "Boylston St at Dartmouth St", latitude: 42.3501932, longitude: -71.07744187, totaldocks: 0}),
(stBoylstonStatExeterSt:Station {name: "Boylston St at Exeter St", latitude: 42.34958942, longitude: -71.07946779, totaldocks: 19}),
(stBoylstonStatFairfieldSt:Station {name: "Boylston St at Fairfield St", latitude: 42.34880382, longitude: -71.08236909, totaldocks: 19}),
(stBoylstonStatJerseySt:Station {name: "Boylston St at Jersey St", latitude: 42.34465063, longitude: -71.09732501, totaldocks: 15}),
(stBoylstonStatMassachusettsAve:Station {name: "Boylston St at Massachusetts Ave", latitude: 42.34740621, longitude: -71.08678415, totaldocks: 15}),
(stBrighamCircleFrancisStatHuntingtonAve:Station {name: "Brigham Circle - Francis St at Huntington Ave", latitude: 42.33462893, longitude: -71.10407918, totaldocks: 15}),
(stBrightonAveatLindenSt:Station {name: "Brighton Ave at Linden St", latitude: 42.3528376, longitude: -71.1296752, totaldocks: 0}),
(stBrightonCenterWashingtonStatCambridgeSt:Station {name: "Brighton Center - Washington St at Cambridge St", latitude: 42.34894857, longitude: -71.15027189, totaldocks: 17}),
(stBrightonMills370WesternAve:Station {name: "Brighton Mills - 370 Western Ave", latitude: 42.36154571, longitude: -71.13776207, totaldocks: 15}),
(stBroadStatCentralSt:Station {name: "Broad St at Central St", latitude: 42.35849449, longitude: -71.0542647, totaldocks: 0}),
(stBunkerHillCommunityCollege:Station {name: "Bunker Hill Community College", latitude: 42.37408991, longitude: -71.06905997, totaldocks: 23}),
(stBurlingtonAveatBrooklineAve:Station {name: "Burlington Ave at Brookline Ave", latitude: 42.345733, longitude: -71.100694, totaldocks: 0}),
(stCambridgeStatJoySt:Station {name: "Cambridge St at Joy St", latitude: 42.36125722, longitude: -71.06528744, totaldocks: 15}),
(stCanalStatCausewaySt:Station {name: "Canal St at Causeway St", latitude: 42.36530095, longitude: -71.06092191, totaldocks: 0}),
(stCentralAveatRiverSt:Station {name: "Central Ave at River St", latitude: 42.27094707, longitude: -71.07337901, totaldocks: 0}),
(stCentralSquareEastBoston:Station {name: "Central Square East Boston", latitude: 42.37544913, longitude: -71.03918549, totaldocks: 15}),
(stCentreStatParkwayYMCA:Station {name: "Centre St at Parkway YMCA", latitude: 42.28277901, longitude: -71.15728851, totaldocks: 19}),
(stCentreStatSeavernsAve:Station {name: "Centre St at Seaverns Ave", latitude: 42.3121203, longitude: -71.1142981, totaldocks: 0}),
(stCentreStatWRoxburyPostOffice:Station {name: "Centre St at W. Roxbury Post Office", latitude: 42.28633199, longitude: -71.15344755, totaldocks: 19}),
(stCharlesCircleCharlesStatCambridgeSt:Station {name: "Charles Circle - Charles St at Cambridge St", latitude: 42.36079297, longitude: -71.07118962, totaldocks: 19}),
(stCharlestownNavyYard:Station {name: "Charlestown Navy Yard", latitude: 42.37412455, longitude: -71.054812, totaldocks: 23}),
(stChinatownGatePlaza:Station {name: "Chinatown Gate Plaza", latitude: 42.351356, longitude: -71.059367, totaldocks: 19}),
(stChinatownTStop:Station {name: "Chinatown T Stop", latitude: 42.352409, longitude: -71.062679, totaldocks: 19}),
(stChristianSciencePlazaMassachusettsAveatWestlandAve:Station {name: "Christian Science Plaza - Massachusetts Ave at Westland Ave", latitude: 42.34366582, longitude: -71.08582377, totaldocks: 19}),
(stCircuitDriveatAmericanLegionHwy:Station {name: "Circuit Drive at American Legion Hwy", latitude: 42.29704126, longitude: -71.09171927, totaldocks: 19}),
(stClarendonStatNewburySt:Station {name: "Clarendon St at Newbury St", latitude: 42.35159662, longitude: -71.07561663, totaldocks: 0}),
(stClearySq:Station {name: "Cleary Sq", latitude: 42.2556, longitude: -71.12444, totaldocks: 16}),
(stClevelandCircle:Station {name: "Cleveland Circle", latitude: 42.33554308, longitude: -71.1506152, totaldocks: 15}),
(stClintonStatNorthSt:Station {name: "Clinton St at North St", latitude: 42.36070284, longitude: -71.05524927, totaldocks: 18}),
(stCodmanSquareLibrary:Station {name: "Codman Square Library", latitude: 42.2873611, longitude: -71.071111, totaldocks: 17}),
(stCollegesoftheFenwayFenwayatAvenueLouisPasteur:Station {name: "Colleges of the Fenway - Fenway at Avenue Louis Pasteur", latitude: 42.34011512, longitude: -71.10061884, totaldocks: 15}),
(stColumbiaRdatCeylonSt:Station {name: "Columbia Rd at Ceylon St", latitude: 42.309572, longitude: -71.0729, totaldocks: 15}),
(stColumbiaRdatTierneyCommunityCenter:Station {name: "Columbia Rd at Tierney Community Center", latitude: 42.33023071, longitude: -71.05060093, totaldocks: 19}),
(stColumbusAveatWCantonSt:Station {name: "Columbus Ave at W. Canton St", latitude: 42.34474225, longitude: -71.07648162, totaldocks: 19}),
(stCommonwealthAveatAgganisWay:Station {name: "Commonwealth Ave at Agganis Way", latitude: 42.35169202, longitude: -71.11903489, totaldocks: 15}),
(stCommonwealthAveatChiswickRd:Station {name: "Commonwealth Ave at Chiswick Rd", latitude: 42.34024645, longitude: -71.15168806, totaldocks: 19}),
(stCommonwealthAveatGriggsSt:Station {name: "Commonwealth Ave at Griggs St", latitude: 42.34922469, longitude: -71.13275303, totaldocks: 15}),
(stCommonwealthAveatKeltonSt:Station {name: "Commonwealth Ave at Kelton St", latitude: 42.34835863, longitude: -71.13997217, totaldocks: 15}),
(stCongressStatBostonCityHall:Station {name: "Congress St at Boston City Hall", latitude: 42.36041775, longitude: -71.05752244, totaldocks: 23}),
(stCongressStatNorthernAve:Station {name: "Congress St at Northern Ave", latitude: 42.3481, longitude: -71.03764, totaldocks: 14}),
(stCongressStatSleeperSt:Station {name: "Congress St at Sleeper St", latitude: 42.3510045, longitude: -71.04930013, totaldocks: 0}),
(stCopleySquareDartmouthStatBoylstonSt:Station {name: "Copley Square - Dartmouth St at Boylston St", latitude: 42.34992828, longitude: -71.07739207, totaldocks: 33}),
(stCrossStatHanoverSt:Station {name: "Cross St at Hanover St", latitude: 42.362811, longitude: -71.056067, totaldocks: 19}),
(stCurtisHallSouthStatCentreSt:Station {name: "Curtis Hall - South St at Centre St", latitude: 42.309054, longitude: -71.11543, totaldocks: 15}),
(stDartmouthStatNewburySt:Station {name: "Dartmouth St at Newbury St", latitude: 42.35096144, longitude: -71.07782811, totaldocks: 19}),
(stDaySq:Station {name: "Day Sq", latitude: 42.379295, longitude: -71.027733, totaldocks: 16}),
(stDeerfieldStatCommonwealthAve:Station {name: "Deerfield St at Commonwealth Ave", latitude: 42.34924377, longitude: -71.0972821, totaldocks: 19}),
(stDorchesterAveatGillettePark:Station {name: "Dorchester Ave at Gillette Park", latitude: 42.34404051, longitude: -71.05737627, totaldocks: 15}),
(stDudleySquareBollingBuilding:Station {name: "Dudley Square - Bolling Building", latitude: 42.32984299, longitude: -71.08386572, totaldocks: 18}),
(stDudleyTownCommonMtPleasantAveatBlueHillAve:Station {name: "Dudley Town Common - Mt Pleasant Ave at Blue Hill Ave", latitude: 42.325333, longitude: -71.075354, totaldocks: 0}),
(stECottageStatColumbiaRd:Station {name: "E Cottage St at Columbia Rd", latitude: 42.320561, longitude: -71.06198, totaldocks: 0}),
(stEastBostonNeighborhoodHealthCenter20MaverickSquare:Station {name: "East Boston Neighborhood Health Center - 20 Maverick Square", latitude: 42.369536, longitude: -71.039431, totaldocks: 16}),
(stEdwardsPlaygroundMainStatEdenSt:Station {name: "Edwards Playground - Main St at Eden St", latitude: 42.378965, longitude: -71.068607, totaldocks: 19}),
(stEglestonSquareAthertonStatWashingtonSt:Station {name: "Egleston Square - Atherton St at Washington St", latitude: 42.315692, longitude: -71.098634, totaldocks: 15}),
(stFanPier:Station {name: "Fan Pier", latitude: 42.35339051, longitude: -71.0445714, totaldocks: 15}),
(stFaneuilStatArlingtonSt:Station {name: "Faneuil St at Arlington St", latitude: 42.35276621, longitude: -71.15988486, totaldocks: 15}),
(stFarragutRdatE6thSt:Station {name: "Farragut Rd at E. 6th St", latitude: 42.3334, longitude: -71.02495, totaldocks: 23}),
(stFieldsCornerTStop:Station {name: "Fields Corner T Stop", latitude: 42.29963349, longitude: -71.06068976, totaldocks: 0}),
(stFlat9atWhittier:Station {name: "Flat 9 at Whittier", latitude: 42.33420351, longitude: -71.08767617, totaldocks: 15}),
(stForestHills:Station {name: "Forest Hills", latitude: 42.300923, longitude: -71.114249, totaldocks: 40}),
(stForsythStatHuntingtonAve:Station {name: "Forsyth St at Huntington Ave", latitude: 42.339202, longitude: -71.090511, totaldocks: 15}),
(stFourCorners157WashingtonSt:Station {name: "Four Corners - 157 Washington St", latitude: 42.30412793, longitude: -71.07929528, totaldocks: 11}),
(stFranklinParkSeaverStatHumboldtAve:Station {name: "Franklin Park - Seaver St at Humboldt Ave", latitude: 42.309796, longitude: -71.092225, totaldocks: 15}),
(stFranklinParkZooFranklinParkRdatBlueHillAve:Station {name: "Franklin Park Zoo - Franklin Park Rd at Blue Hill Ave", latitude: 42.303469, longitude: -71.085347, totaldocks: 14}),
(stGallivanBlvdatAdamsSt:Station {name: "Gallivan Blvd at Adams St", latitude: 42.28297568, longitude: -71.05466698, totaldocks: 15}),
(stGeigerGibsonCommunityHealthCenter:Station {name: "Geiger Gibson Community Health Center", latitude: 42.31886468, longitude: -71.04536798, totaldocks: 19}),
(stGlendonStatCondorSt:Station {name: "Glendon St at Condor St", latitude: 42.38240378, longitude: -71.03024304, totaldocks: 0}),
(stGoveStatOrleansSt:Station {name: "Gove St at Orleans St", latitude: 42.37057753, longitude: -71.0355854, totaldocks: 19}),
(stGovernmentCenterCambridgeStatCourtSt:Station {name: "Government Center - Cambridge St at Court St", latitude: 42.3598254, longitude: -71.05979576, totaldocks: 35}),
(stGreenStreetTStopGreenStatAmorySt:Station {name: "Green Street T Stop - Green St at Amory St", latitude: 42.310579, longitude: -71.107341, totaldocks: 23}),
(stGroveHallLibrary41GenevaAve:Station {name: "Grove Hall Library - 41 Geneva Ave", latitude: 42.30791, longitude: -71.080952, totaldocks: 15}),
(stHarrisonAveatBennetSt:Station {name: "Harrison Ave at Bennet St", latitude: 42.3494261, longitude: -71.0620996, totaldocks: 19}),
(stHarrisonAveatEDedhamSt:Station {name: "Harrison Ave at E. Dedham St", latitude: 42.339194, longitude: -71.06975, totaldocks: 19}),
(stHarrisonAveatMullinsWay:Station {name: "Harrison Ave at Mullins Way", latitude: 42.34521562, longitude: -71.06384031, totaldocks: 19}),
(stHarvardAveatBrainerdRd:Station {name: "Harvard Ave at Brainerd Rd", latitude: 42.34953017, longitude: -71.13022771, totaldocks: 15}),
(stHarvardStadiumNHarvardStatSoldiersFieldRd:Station {name: "Harvard Stadium: N. Harvard St at Soldiers Field Rd", latitude: 42.368019, longitude: -71.1242, totaldocks: 15}),
(stHayesSquareVineStatMoultonSt:Station {name: "Hayes Square - Vine St at Moulton St", latitude: 42.377022, longitude: -71.056605, totaldocks: 0}),
(stHMSHSPHAvenueLouisPasteuratLongwoodAve:Station {name: "HMS/HSPH - Avenue Louis Pasteur at Longwood Ave", latitude: 42.33741748, longitude: -71.10286117, totaldocks: 25}),
(stHonanLibrary:Station {name: "Honan Library", latitude: 42.3602737, longitude: -71.12852452, totaldocks: 15}),
(stHoodPark:Station {name: "Hood Park", latitude: 42.38004535, longitude: -71.07304573, totaldocks: 23}),
(stHuntingtonAveatMassArt:Station {name: "Huntington Ave at Mass Art", latitude: 42.33658555, longitude: -71.09886996, totaldocks: 15}),
(stHydeParkAveatArlingtonSt:Station {name: "Hyde Park Ave at Arlington St", latitude: 42.26286746, longitude: -71.12163126, totaldocks: 0}),
(stHydeParkAveatWalkHillSt:Station {name: "Hyde Park Ave at Walk Hill St", latitude: 42.29606705, longitude: -71.116012, totaldocks: 15}),
(stHydeParkLibrary:Station {name: "Hyde Park Library", latitude: 42.2568376, longitude: -71.122509, totaldocks: 15}),
(stHydeSquareBarbaraStatCentreSt:Station {name: "Hyde Square - Barbara St at Centre St", latitude: 42.32176526, longitude: -71.10984161, totaldocks: 15}),
(stIDBuildingEast:Station {name: "ID Building East", latitude: 42.344827, longitude: -71.028664, totaldocks: 17}),
(stIDBuildingWest:Station {name: "ID Building West", latitude: 42.344796, longitude: -71.031614, totaldocks: 19}),
(stInkBlockHarrisonAveatHeraldSt:Station {name: "Ink Block - Harrison Ave at Herald St", latitude: 42.345901, longitude: -71.063187, totaldocks: 27}),
(stInnovationLab125WesternAveatBattenWay:Station {name: "Innovation Lab - 125 Western Ave at Batten Way", latitude: 42.36371276, longitude: -71.12459779, totaldocks: 19}),
(stJacksonSquareTStop:Station {name: "Jackson Square T Stop", latitude: 42.32293117, longitude: -71.10014141, totaldocks: 18}),
(stJamaicaStatSouthSt:Station {name: "Jamaica St at South St", latitude: 42.30604563, longitude: -71.11570891, totaldocks: 19}),
(stJFKUMassTStop:Station {name: "JFK/UMass T Stop", latitude: 42.32033974, longitude: -71.05118036, totaldocks: 15}),
(stKenmoreSquare:Station {name: "Kenmore Square", latitude: 42.348706, longitude: -71.097009, totaldocks: 26}),
(stKnollStatCentreSt:Station {name: "Knoll St at Centre St", latitude: 42.29376656, longitude: -71.1365658, totaldocks: 0}),
(stLandmarkCenterBrooklineAveatParkDr:Station {name: "Landmark Center - Brookline Ave at Park Dr", latitude: 42.34369056, longitude: -71.10235287, totaldocks: 15}),
(stLansdowneTStop:Station {name: "Lansdowne T Stop", latitude: 42.34734473, longitude: -71.10016808, totaldocks: 27}),
(stLewisWharfatAtlanticAve:Station {name: "Lewis Wharf at Atlantic Ave", latitude: 42.363871, longitude: -71.050877, totaldocks: 19}),
(stLongwoodAveatBinneySt:Station {name: "Longwood Ave at Binney St", latitude: 42.338629, longitude: -71.1065, totaldocks: 15}),
(stMainStatAustinSt:Station {name: "Main St at Austin St", latitude: 42.375603, longitude: -71.064608, totaldocks: 11}),
(stMainStatBaldwinSt:Station {name: "Main St at Baldwin St", latitude: 42.380857, longitude: -71.070629, totaldocks: 19}),
(stMainStatThompsonSq:Station {name: "Main St at Thompson Sq", latitude: 42.37487847, longitude: -71.06383499, totaldocks: 15}),
(stMarionStatWhiteSt:Station {name: "Marion St at White St", latitude: 42.38066931, longitude: -71.03907316, totaldocks: 0}),
(stMarthaEliotHealthCenter:Station {name: "Martha Eliot Health Center", latitude: 42.324173, longitude: -71.10196, totaldocks: 16}),
(stMassAveTStation:Station {name: "Mass Ave T Station", latitude: 42.34135616, longitude: -71.08336953, totaldocks: 16}),
(stMassachusettsAveatColumbusAve:Station {name: "Massachusetts Ave at Columbus Ave", latitude: 42.340814, longitude: -71.0816197, totaldocks: 0}),
(stMattapanLibrary:Station {name: "Mattapan Library", latitude: 42.2773889, longitude: -71.09325, totaldocks: 15}),
(stMattapanTStop:Station {name: "Mattapan T Stop", latitude: 42.267902, longitude: -71.093641, totaldocks: 15}),
(stMaverickSquareLewisMall:Station {name: "Maverick Square - Lewis Mall", latitude: 42.36884408, longitude: -71.03977829, totaldocks: 33}),
(stMaverickStatMassportPath:Station {name: "Maverick St at Massport Path", latitude: 42.36774122, longitude: -71.03335975, totaldocks: 15}),
(stMedfordStatCharlestownBCYF:Station {name: "Medford St at Charlestown BCYF", latitude: 42.38042947, longitude: -71.06055722, totaldocks: 19}),
(stMLKBlvdatWashingtonSt:Station {name: "MLK Blvd at Washington St", latitude: 42.32143814, longitude: -71.09126061, totaldocks: 15}),
(stMortonStatGallivanBlvd:Station {name: "Morton St at Gallivan Blvd", latitude: 42.278747, longitude: -71.080286, totaldocks: 15}),
(stMortonStT:Station {name: "Morton St T", latitude: 42.28072514, longitude: -71.08617242, totaldocks: 0}),
(stMtHopeStatHydeParkAve:Station {name: "Mt. Hope St at Hyde Park Ave", latitude: 42.28484472, longitude: -71.11874517, totaldocks: 0}),
(stMugarWayatBeaconSt:Station {name: "Mugar Way at Beacon St", latitude: 42.35553628, longitude: -71.0728687, totaldocks: 19}),
(stMurphySkatingRink1880DayBlvd:Station {name: "Murphy Skating Rink - 1880 Day Blvd", latitude: 42.336448, longitude: -71.023739, totaldocks: 19}),
(stNashuaStreetatRedAuerbachWay:Station {name: "Nashua Street at Red Auerbach Way", latitude: 42.365673, longitude: -71.064263, totaldocks: 36}),
(stNCAAAWalnutAveatCrawfordSt:Station {name: "NCAAA - Walnut Ave at Crawford St", latitude: 42.316902, longitude: -71.091946, totaldocks: 15}),
(stNewBalance20GuestSt:Station {name: "New Balance - 20 Guest St", latitude: 42.35732922, longitude: -71.1467354, totaldocks: 15}),
(stNewburyStatHerefordSt:Station {name: "Newbury St at Hereford St", latitude: 42.348717, longitude: -71.085954, totaldocks: 0}),
(stNewmarketSquareTStopMassachusettsAveatNewmarketSquare:Station {name: "Newmarket Square T Stop - Massachusetts Ave at Newmarket Square", latitude: 42.326599, longitude: -71.066498, totaldocks: 15}),
(stNorthbourneRdatHydeParkAve:Station {name: "Northbourne Rd at Hyde Park Ave", latitude: 42.29118035, longitude: -71.11773666, totaldocks: 0}),
(stNortheasternUniversityNorthParkingLot:Station {name: "Northeastern University - North Parking Lot", latitude: 42.341814, longitude: -71.090179, totaldocks: 0}),
(stOakSquare615WashingtonSt:Station {name: "Oak Square - 615 Washington St", latitude: 42.35057, longitude: -71.166491, totaldocks: 15}),
(stOneBeaconSt:Station {name: "One Beacon St", latitude: 42.35847764, longitude: -71.0613513, totaldocks: 16}),
(stOneBrighamCircle:Station {name: "One Brigham Circle", latitude: 42.3339227, longitude: -71.10446509, totaldocks: 15}),
(stOrientHeightsTStopBenningtonStatSaratogaSt:Station {name: "Orient Heights T Stop - Bennington St at Saratoga St", latitude: 42.386781, longitude: -71.006098, totaldocks: 19}),
(stPackardsCornerCommonwealthAveatBrightonAve:Station {name: "Packard's Corner - Commonwealth Ave at Brighton Ave", latitude: 42.352261, longitude: -71.123831, totaldocks: 27}),
(stParkDratBuswellSt:Station {name: "Park Dr at Buswell St", latitude: 42.347241, longitude: -71.105301, totaldocks: 15}),
(stParkPlazaatCharlesStS:Station {name: "Park Plaza at Charles St S.", latitude: 42.35182807, longitude: -71.06781138, totaldocks: 19}),
(stParkStatNorwellSt:Station {name: "Park St at Norwell St", latitude: 42.29442579, longitude: -71.07821761, totaldocks: 0}),
(stPier4BlvdatAutumnLn:Station {name: "Pier 4 Blvd at Autumn Ln", latitude: 42.3502102, longitude: -71.0446705, totaldocks: 19}),
(stPiersPark:Station {name: "Piers Park", latitude: 42.3650112, longitude: -71.03528559, totaldocks: 0}),
(stPorzioPark:Station {name: "Porzio Park", latitude: 42.36411904, longitude: -71.02876782, totaldocks: 17}),
(stPostOfficeSquare:Station {name: "Post Office Square", latitude: 42.35585436, longitude: -71.05459746, totaldocks: 0}),
(stPrudentialCenter101HuntingtonAve:Station {name: "Prudential Center - 101 Huntington Ave", latitude: 42.34652004, longitude: -71.08065777, totaldocks: 18}),
(stPurchaseStatPearlSt:Station {name: "Purchase St at Pearl St", latitude: 42.354659, longitude: -71.053181, totaldocks: 19}),
(stRingRd:Station {name: "Ring Rd", latitude: 42.34827839, longitude: -71.08044855, totaldocks: 15}),
(stRoselandStAtDorchesterAve:Station {name: "Roseland St At Dorchester Ave", latitude: 42.29116853, longitude: -71.0630089, totaldocks: 12}),
(stRoslindaleVillageSouthSt:Station {name: "Roslindale Village - South St", latitude: 42.287072, longitude: -71.127754, totaldocks: 15}),
(stRoslindaleVillageWashingtonSt:Station {name: "Roslindale Village - Washington St", latitude: 42.28630716, longitude: -71.12820532, totaldocks: 15}),
(stRossPlayground:Station {name: "Ross Playground", latitude: 42.2645666, longitude: -71.1145523, totaldocks: 19}),
(stRowesWharfatAtlanticAve:Station {name: "Rowes Wharf at Atlantic Ave", latitude: 42.357143, longitude: -71.050699, totaldocks: 14}),
(stRoxburyCrossingTStopColumbusAveatTremontSt:Station {name: "Roxbury Crossing T Stop - Columbus Ave at Tremont St", latitude: 42.331184, longitude: -71.095171, totaldocks: 23}),
(stRoxburyYMCAWarrenStatMLKBlvd:Station {name: "Roxbury YMCA - Warren St at MLK Blvd", latitude: 42.31787329, longitude: -71.08243078, totaldocks: 10}),
(stRugglesTStopColumbusAveatMelneaCassBlvd:Station {name: "Ruggles T Stop - Columbus Ave at Melnea Cass Blvd", latitude: 42.33624445, longitude: -71.08798563, totaldocks: 26}),
(stRyanPlaygroundDorchesterAveatHarborViewSt:Station {name: "Ryan Playground - Dorchester Ave at Harbor View St", latitude: 42.317642, longitude: -71.056664, totaldocks: 0}),
(stSHuntingtonAveatHeathSt:Station {name: "S Huntington Ave at Heath St", latitude: 42.32760387, longitude: -71.1108917, totaldocks: 15}),
(stSavinHillTStopSSydneyStatBaySt:Station {name: "Savin Hill T Stop - S Sydney St at Bay St", latitude: 42.3106, longitude: -71.0539, totaldocks: 14}),
(stSeaportBlvdatSleeperSt:Station {name: "Seaport Blvd at Sleeper St", latitude: 42.35317809, longitude: -71.04817357, totaldocks: 15}),
(stSeaportHotelCongressStatSeaportLn:Station {name: "Seaport Hotel - Congress St at Seaport Ln", latitude: 42.34881026, longitude: -71.04167744, totaldocks: 19}),
(stSeaportSquareSeaportBlvdatNorthernAve:Station {name: "Seaport Square - Seaport Blvd at Northern Ave", latitude: 42.35148193, longitude: -71.04436085, totaldocks: 19}),
(stShawmutAveatLenoxSt:Station {name: "Shawmut Ave at Lenox St", latitude: 42.33584613, longitude: -71.08038157, totaldocks: 19}),
(stShawmutAveatOakStW:Station {name: "Shawmut Ave at Oak St W", latitude: 42.34854543, longitude: -71.06559185, totaldocks: 15}),
(stShawmutTStop:Station {name: "Shawmut T Stop", latitude: 42.292917, longitude: -71.06575, totaldocks: 19}),
(stSilberWay:Station {name: "Silber Way", latitude: 42.349496, longitude: -71.10057592, totaldocks: 19}),
(stSoldiersFieldPark111WesternAve:Station {name: "Soldiers Field Park - 111 Western Ave", latitude: 42.36426344, longitude: -71.1182757, totaldocks: 15}),
(stSouthBostonLibrary646EBroadway:Station {name: "South Boston Library - 646 E Broadway", latitude: 42.335741, longitude: -71.03877, totaldocks: 15}),
(stSouthEndLibraryTremontStatWNewtonSt:Station {name: "South End Library - Tremont St at W Newton St", latitude: 42.341332, longitude: -71.076847, totaldocks: 15}),
(stSouthStation700AtlanticAve:Station {name: "South Station - 700 Atlantic Ave", latitude: 42.352175, longitude: -71.055547, totaldocks: 47}),
(stSpauldingRehabilitationHospitalCharlestownNavyYard:Station {name: "Spaulding Rehabilitation Hospital - Charlestown Navy Yard", latitude: 42.378338, longitude: -71.048927, totaldocks: 19}),
(stSpringStatPowellSt:Station {name: "Spring St at Powell St", latitude: 42.27748444, longitude: -71.16341468, totaldocks: 19}),
(stStAlphonsusStatTremontSt:Station {name: "St. Alphonsus St at Tremont St", latitude: 42.33329255, longitude: -71.10124648, totaldocks: 18}),
(stStateStreetatChannelCenter:Station {name: "State Street at Channel Center", latitude: 42.344137, longitude: -71.052608, totaldocks: 19}),
(stStonyBrookTStop:Station {name: "Stony Brook T Stop", latitude: 42.316966, longitude: -71.104374, totaldocks: 19}),
(stStuartStatBerkeleySt:Station {name: "Stuart St at Berkeley St", latitude: 42.34954403, longitude: -71.07242074, totaldocks: 19}),
(stStuartStatCharlesSt:Station {name: "Stuart St at Charles St", latitude: 42.351146, longitude: -71.066289, totaldocks: 17}),
(stSullivanSquare:Station {name: "Sullivan Square", latitude: 42.38445226, longitude: -71.07514855, totaldocks: 19}),
(stSurfaceRdatIndiaSt:Station {name: "Surface Rd at India St", latitude: 42.358155, longitude: -71.052163, totaldocks: 19}),
(stSurfaceRdatSummerSt:Station {name: "Surface Rd at Summer St", latitude: 42.3529457, longitude: -71.05656401, totaldocks: 27}),
(stSydneyStatCarsonSt:Station {name: "Sydney St at Carson St", latitude: 42.32039374, longitude: -71.05355408, totaldocks: 19}),
(stTalbotAveAtBlueHillAve:Station {name: "Talbot Ave At Blue Hill Ave", latitude: 42.2945833, longitude: -71.087111, totaldocks: 15}),
(stTheDimockCenter:Station {name: "The Dimock Center", latitude: 42.31930943, longitude: -71.09639924, totaldocks: 16}),
(stTheEddyNewStatSumnerSt:Station {name: "The Eddy - New St at Sumner St", latitude: 42.370744, longitude: -71.044201, totaldocks: 15}),
(stTheLawnonD:Station {name: "The Lawn on D", latitude: 42.344792, longitude: -71.044024, totaldocks: 19}),
(stTheOverlookatStGabriels:Station {name: "The Overlook at St. Gabriel's", latitude: 42.34679008, longitude: -71.14549814, totaldocks: 19}),
(stThetfordAveatNorfolkSt:Station {name: "Thetford Ave at Norfolk St", latitude: 42.28621295, longitude: -71.07942931, totaldocks: 0}),
(stTremontStatEBerkeleySt:Station {name: "Tremont St at E Berkeley St", latitude: 42.345392, longitude: -71.069616, totaldocks: 19}),
(stTremontStatHamiltonPl:Station {name: "Tremont St at Hamilton Pl", latitude: 42.35668335, longitude: -71.06166646, totaldocks: 19}),
(stTremontStatNorthamptonSt:Station {name: "Tremont St at Northampton St", latitude: 42.3384318, longitude: -71.0816905, totaldocks: 19}),
(stTremontStatWDedhamSt:Station {name: "Tremont St at W. Dedham St", latitude: 42.34254914, longitude: -71.07421449, totaldocks: 15}),
(stTremontStatWestSt:Station {name: "Tremont St at West St", latitude: 42.354979, longitude: -71.063348, totaldocks: 15}),
(stTroyBoston:Station {name: "Troy Boston", latitude: 42.343749, longitude: -71.062256, totaldocks: 14}),
(stUnionSquareBrightonAveatCambridgeSt:Station {name: "Union Square - Brighton Ave at Cambridge St", latitude: 42.353334, longitude: -71.137313, totaldocks: 19}),
(stUniversityofMassachusettsBostonCampusCenter:Station {name: "University of Massachusetts Boston - Campus Center", latitude: 42.31218918, longitude: -71.03648586, totaldocks: 19}),
(stUphamsCorner:Station {name: "Uphams Corner", latitude: 42.31727474, longitude: -71.06537004, totaldocks: 0}),
(stUphamsCornerTStopMagnoliaStatDudleySt:Station {name: "Uphams Corner T Stop - Magnolia St at Dudley St", latitude: 42.31869734, longitude: -71.06978148, totaldocks: 0}),
(stValentiWayatHaverhillSt:Station {name: "Valenti Way at Haverhill St", latitude: 42.36473899, longitude: -71.05934903, totaldocks: 24}),
(stWBroadwayatDSt:Station {name: "W Broadway at D St", latitude: 42.3391085, longitude: -71.0514432, totaldocks: 23}),
(stWBroadwayatDorchesterSt:Station {name: "W Broadway at Dorchester St", latitude: 42.33595898, longitude: -71.046229, totaldocks: 17}),
(stWalnutAveatSchoolSt:Station {name: "Walnut Ave at School St", latitude: 42.31242399, longitude: -71.09616905, totaldocks: 19}),
(stWalnutAveatWarrenSt:Station {name: "Walnut Ave at Warren St", latitude: 42.324081, longitude: -71.083235, totaldocks: 0}),
(stWarrenStatChelseaSt:Station {name: "Warren St at Chelsea St", latitude: 42.371848, longitude: -71.060292, totaldocks: 23}),
(stWashingtonStatBowdoinSt:Station {name: "Washington St at Bowdoin St", latitude: 42.29916498, longitude: -71.07345872, totaldocks: 0}),
(stWashingtonStatBrockSt:Station {name: "Washington St at Brock St", latitude: 42.34895285, longitude: -71.16031677, totaldocks: 15}),
(stWashingtonStatDentonTerr:Station {name: "Washington St at Denton Terr", latitude: 42.28072815, longitude: -71.13423757, totaldocks: 0}),
(stWashingtonStatEgremontRd:Station {name: "Washington St at Egremont Rd", latitude: 42.34286835, longitude: -71.14127841, totaldocks: 0}),
(stWashingtonStatFullerSt:Station {name: "Washington St at Fuller St", latitude: 42.28198628, longitude: -71.07147925, totaldocks: 0}),
(stWashingtonStatLenoxSt:Station {name: "Washington St at Lenox St", latitude: 42.33509899, longitude: -71.07903779, totaldocks: 15}),
(stWashingtonStatMelneaCassBlvd:Station {name: "Washington St at Melnea Cass Blvd", latitude: 42.332817, longitude: -71.081198, totaldocks: 19}),
(stWashingtonStatPetersPark:Station {name: "Washington St at Peters Park", latitude: 42.34303291, longitude: -71.0668873, totaldocks: 0}),
(stWashingtonStatRutlandSt:Station {name: "Washington St at Rutland St", latitude: 42.3385146, longitude: -71.07404083, totaldocks: 27}),
(stWashingtonStatTalbotAve:Station {name: "Washington St at Talbot Ave", latitude: 42.290333, longitude: -71.071806, totaldocks: 17}),
(stWashingtonStatWalshPlayground:Station {name: "Washington St at Walsh Playground", latitude: 42.2771947, longitude: -71.06955614, totaldocks: 0}),
(stWashingtonStatWalthamSt:Station {name: "Washington St at Waltham St", latitude: 42.34157472, longitude: -71.0689044, totaldocks: 15}),
(stWatermarkSeaportBostonWharfRdatSeaportBlvd:Station {name: "Watermark Seaport - Boston Wharf Rd at Seaport Blvd", latitude: 42.351586, longitude: -71.04569256, totaldocks: 15}),
(stWentworthInstituteofTechnologyHuntingtonAveatVancouverSt:Station {name: "Wentworth Institute of Technology - Huntington Ave at Vancouver St", latitude: 42.33758601, longitude: -71.09627098, totaldocks: 14}),
(stWestEndPark:Station {name: "West End Park", latitude: 42.36590788, longitude: -71.06446669, totaldocks: 35}),
(stWesternAveatRichardsonSt:Station {name: "Western Ave at Richardson St", latitude: 42.36178741, longitude: -71.14393111, totaldocks: 0}),
(stWhittierStHealthCenter:Station {name: "Whittier St Health Center", latitude: 42.33286288, longitude: -71.09218862, totaldocks: 19}),
(stWilliamsStatWashingtonSt:Station {name: "Williams St at Washington St", latitude: 42.306539, longitude: -71.107669, totaldocks: 23}),
(st175NHarvardSt)-[:trip {trip_count: 7, duration: 666.0, distance: -1}]->(stJFKCrossingatHarvardStThorndikeSt),
(st175NHarvardSt)-[:trip {trip_count: 1, duration: 879.0, distance: -1}]->(stCoolidgeCornerBeaconStatCentreSt),
(st175NHarvardSt)-[:trip {trip_count: 1, duration: 2183.0, distance: -1}]->(st515SomervilleAveTempWinterLocation),
(st175NHarvardSt)-[:trip {trip_count: 7, duration: 321.0, distance: 0.8960864681318131}]->(stSoldiersFieldPark111WesternAve),
(st175NHarvardSt)-[:trip {trip_count: 1, duration: 548.0, distance: -1}]->(stHarvardUniversitySEASCruftPierceHallsat29OxfordSt),
(st175NHarvardSt)-[:trip {trip_count: 2, duration: 1102.5, distance: -1}]->(stHarvardSquareatMassAveDunster),
(st175NHarvardSt)-[:trip {trip_count: 1, duration: 101.0, distance: 0.37527353335887714}]->(stInnovationLab125WesternAveatBattenWay),
(st175NHarvardSt)-[:trip {trip_count: 1, duration: 617.0, distance: -1}]->(stVerizonInnovationHub10WareStreet),
(st175NHarvardSt)-[:trip {trip_count: 1, duration: 1480.0, distance: 4.378399144739229}]->(stBoylstonStatExeterSt),
(st175NHarvardSt)-[:trip {trip_count: 1, duration: 330.0, distance: -1}]->(stHarvardSquareatBrattleStEliotSt),
(st175NHarvardSt)-[:trip {trip_count: 1, duration: 1085.0, distance: 3.0038594152132903}]->(stLansdowneTStop),
(st175NHarvardSt)-[:trip {trip_count: 1, duration: 655.0, distance: -1}]->(st955MassAve),
(st175NHarvardSt)-[:trip {trip_count: 1, duration: 873.0, distance: -1}]->(stHarvardStandStedmanSt),
(st175NHarvardSt)-[:trip {trip_count: 1, duration: 524.0, distance: -1}]->(stHarvardUniversityRiverHousesatDeWolfeStCowperthwaiteSt),
(st175NHarvardSt)-[:trip {trip_count: 1, duration: 1393.0, distance: 4.774970193018547}]->(stCharlesCircleCharlesStatCambridgeSt),
(st175NHarvardSt)-[:trip {trip_count: 1, duration: 357.0, distance: -1}]->(stHarvardKennedySchoolatBennettStEliotSt),
(st175NHarvardSt)-[:trip {trip_count: 1, duration: 1648.0, distance: 5.331222090532899}]->(stWashingtonStatRutlandSt),
(st175NHarvardSt)-[:trip {trip_count: 1, duration: 1528.0, distance: -1}]->(stUnionSquareSomerville),
(st175NHarvardSt)-[:trip {trip_count: 1, duration: 1655.0, distance: 4.424583282662979}]->(stPrudentialCenter101HuntingtonAve),
(st175NHarvardSt)-[:trip {trip_count: 2, duration: 1163.5, distance: 2.836628107553728}]->(stSilberWay),
(st175NHarvardSt)-[:trip {trip_count: 6, duration: 142.0, distance: 0.6219527985175866}]->(stHarvardStadiumNHarvardStatSoldiersFieldRd),
(st175NHarvardSt)-[:trip {trip_count: 1, duration: 2384.0, distance: 3.1387709639188777}]->(stLandmarkCenterBrooklineAveatParkDr),
(st175NHarvardSt)-[:trip {trip_count: 1, duration: 1634.0, distance: 2.6062748095319592}]->(st700CommonwealthAve),
(st175NHarvardSt)-[:trip {trip_count: 1, duration: 512.0, distance: -1}]->(stHarvardUniversityHousing115PutnamAveatPeabodyTerrace),
(st175NHarvardSt)-[:trip {trip_count: 1, duration: 307.0, distance: 0.7494345112784458}]->(stBrightonMills370WesternAve),
(st175NHarvardSt)-[:trip {trip_count: 1, duration: 2146.0, distance: -1}]->(stCommonwealthAveAtBabcockSt),
(st175NHarvardSt)-[:trip {trip_count: 1, duration: 1928.0, distance: 4.894661697802045}]->(stBlossomStatCharlesSt),
(st175NHarvardSt)-[:trip {trip_count: 2, duration: 482.5, distance: 1.3422551851833744}]->(stUnionSquareBrightonAveatCambridgeSt),
(st175NHarvardSt)-[:trip {trip_count: 1, duration: 1348.0, distance: 4.97211167244923}]->(stSouthEndLibraryTremontStatWNewtonSt),
(st175NHarvardSt)-[:trip {trip_count: 1, duration: 496.0, distance: -1}]->(stCambridgeMainLibraryatBroadwayTrowbridgeSt),
(st645SummerSt)-[:trip {trip_count: 2, duration: 1458.5, distance: 3.3681119043738232}]->(stBoylstonStatExeterSt),
(st645SummerSt)-[:trip {trip_count: 20, duration: 287.0, distance: 0.8320123201282202}]->(stWBroadwayatDorchesterSt),
(st645SummerSt)-[:trip {trip_count: 1, duration: 1507.0, distance: 2.810947820224954}]->(stStuartStatBerkeleySt),
(st645SummerSt)-[:trip {trip_count: 1, duration: 538.0, distance: 1.0169364837771795}]->(stPier4BlvdatAutumnLn),
(st645SummerSt)-[:trip {trip_count: 8, duration: 497.0, distance: 1.7307966787858806}]->(stSouthStation700AtlanticAve),
(st645SummerSt)-[:trip {trip_count: 1, duration: 905.0, distance: 2.8239877794237334}]->(stTremontStatWDedhamSt),
(st645SummerSt)-[:trip {trip_count: 1, duration: 1657.0, distance: 4.7327965146753845}]->(stBoylstonStatJerseySt),
(st645SummerSt)-[:trip {trip_count: 1, duration: 1516.0, distance: 4.274987729949101}]->(stMainStatAustinSt),
(st645SummerSt)-[:trip {trip_count: 1, duration: 3692.0, distance: 1.439348318281932}]->(stSeaportBlvdatSleeperSt),
(st645SummerSt)-[:trip {trip_count: 1, duration: 770.0, distance: 2.690687081689169}]->(stCrossStatHanoverSt),
(st645SummerSt)-[:trip {trip_count: 1, duration: 1161.0, distance: 3.0269383798031244}]->(stColumbusAveatWCantonSt),
(st645SummerSt)-[:trip {trip_count: 1, duration: 1142.0, distance: 2.9373477407382023}]->(stBoylstonStatBerkeleySt),
(st645SummerSt)-[:trip {trip_count: 1, duration: 666.0, distance: 1.8502482059739926}]->(stSurfaceRdatSummerSt),
(st645SummerSt)-[:trip {trip_count: 1, duration: 1417.0, distance: -1}]->(stEFNorthPointPark),
(st645SummerSt)-[:trip {trip_count: 1, duration: 1187.0, distance: 3.4573619470495114}]->(stTremontStatNorthamptonSt),
(st645SummerSt)-[:trip {trip_count: 1, duration: 898.0, distance: 2.617542561859207}]->(stLewisWharfatAtlanticAve),
(st700CommonwealthAve)-[:trip {trip_count: 19, duration: 161.0, distance: 0.36938092560866315}]->(stBUCentral725CommAve),
(st700CommonwealthAve)-[:trip {trip_count: 21, duration: 196.0, distance: 0.5763701499308403}]->(stKenmoreSquare),
(st700CommonwealthAve)-[:trip {trip_count: 1, duration: 794.0, distance: 2.407461678477545}]->(stSouthEndLibraryTremontStatWNewtonSt),
(st700CommonwealthAve)-[:trip {trip_count: 86, duration: 161.5, distance: 0.5466168786419888}]->(stDeerfieldStatCommonwealthAve),
(st700CommonwealthAve)-[:trip {trip_count: 33, duration: 306.0, distance: 0.6705583222824893}]->(stLandmarkCenterBrooklineAveatParkDr),
(st700CommonwealthAve)-[:trip {trip_count: 1, duration: 639.0, distance: -1}]->(stHarvardStandStedmanSt),
(st700CommonwealthAve)-[:trip {trip_count: 2, duration: 1187.0, distance: 3.402921078702798}]->(stChinatownTStop),
(st700CommonwealthAve)-[:trip {trip_count: 13, duration: 544.0, distance: 1.662956605865328}]->(stPackardsCornerCommonwealthAveatBrightonAve),
(st700CommonwealthAve)-[:trip {trip_count: 29, duration: 124.0, distance: 0.2747100200364377}]->(stSilberWay),
(st700CommonwealthAve)-[:trip {trip_count: 6, duration: 843.0, distance: 2.6349806770606783}]->(stMugarWayatBeaconSt),
(st700CommonwealthAve)-[:trip {trip_count: 3, duration: 551.0, distance: 1.089927315795236}]->(stCollegesoftheFenwayFenwayatAvenueLouisPasteur),
(st700CommonwealthAve)-[:trip {trip_count: 2, duration: 158.5, distance: 0.3977986594999241}]->(stLansdowneTStop),
(st700CommonwealthAve)-[:trip {trip_count: 3, duration: 1010.0, distance: -1}]->(stHarvardKennedySchoolatBennettStEliotSt),
(st700CommonwealthAve)-[:trip {trip_count: 53, duration: 421.0, distance: 1.26388359620231}]->(stCommonwealthAveatAgganisWay),
(st700CommonwealthAve)-[:trip {trip_count: 3, duration: 1017.0, distance: -1}]->(stHarvardUniversityRiverHousesatDeWolfeStCowperthwaiteSt),
(st700CommonwealthAve)-[:trip {trip_count: 1, duration: 601.0, distance: 1.506385908066943}]->(stHuntingtonAveatMassArt),
(st700CommonwealthAve)-[:trip {trip_count: 2, duration: 885.5, distance: -1}]->(stOneBroadwayKendallSqatMainSt3rdSt),
(st700CommonwealthAve)-[:trip {trip_count: 5, duration: 605.0, distance: 1.4289875978278812}]->(stBoylstonStatMassachusettsAve),
(st700CommonwealthAve)-[:trip {trip_count: 2, duration: 458.0, distance: -1}]->(stStMarys),
(st700CommonwealthAve)-[:trip {trip_count: 3, duration: 465.0, distance: 0.7728927886147368}]->(stBoylstonStatJerseySt),
(st700CommonwealthAve)-[:trip {trip_count: 4, duration: 717.5, distance: 1.6270709910200885}]->(stChristianSciencePlazaMassachusettsAveatWestlandAve),
(st700CommonwealthAve)-[:trip {trip_count: 8, duration: 552.0, distance: -1}]->(stCommonwealthAveAtBabcockSt),
(st700CommonwealthAve)-[:trip {trip_count: 2, duration: 739.5, distance: 2.522261062685612}]->(stBoylstonStatBerkeleySt),
(st700CommonwealthAve)-[:trip {trip_count: 1, duration: 795.0, distance: 1.477201856258193}]->(stWentworthInstituteofTechnologyHuntingtonAveatVancouverSt),
(st700CommonwealthAve)-[:trip {trip_count: 1, duration: 1350.0, distance: -1}]->(stCambridgeStatColumbiaStWebsterAve),
(st700CommonwealthAve)-[:trip {trip_count: 1, duration: 1393.0, distance: 3.0967432436487927}]->(stStuartStatCharlesSt),
(st700CommonwealthAve)-[:trip {trip_count: 3, duration: 989.0, distance: -1}]->(stHarvardSquareatMassAveDunster),
(st700CommonwealthAve)-[:trip {trip_count: 2, duration: 7755.0, distance: 4.607833343580698}]->(stCurtisHallSouthStatCentreSt),
(st700CommonwealthAve)-[:trip {trip_count: 6, duration: 552.0, distance: 2.009053830688802}]->(stBoylstonStatExeterSt),
(st700CommonwealthAve)-[:trip {trip_count: 4, duration: 821.5, distance: 1.5977576821363646}]->(stForsythStatHuntingtonAve),
(st700CommonwealthAve)-[:trip {trip_count: 8, duration: 550.5, distance: 1.7729041002158157}]->(stBoylstonStatFairfieldSt),
(st700CommonwealthAve)-[:trip {trip_count: 1, duration: 409.0, distance: -1}]->(stLowerCambridgeportatMagazineStRiversideRd),
(st700CommonwealthAve)-[:trip {trip_count: 2, duration: 726.0, distance: 1.3584502850047095}]->(stHMSHSPHAvenueLouisPasteuratLongwoodAve),
(st700CommonwealthAve)-[:trip {trip_count: 2, duration: 690.5, distance: -1}]->(stCentralSqPostOfficeCambridgeCityHallatMassAvePleasantSt),
(st700CommonwealthAve)-[:trip {trip_count: 1, duration: 967.0, distance: 2.318587635899736}]->(stColumbusAveatWCantonSt),
(st700CommonwealthAve)-[:trip {trip_count: 1, duration: 998.0, distance: 2.344217781560383}]->(stHonanLibrary),
(st700CommonwealthAve)-[:trip {trip_count: 1, duration: 1507.0, distance: -1}]->(stChildStreetatBrianPMurphyStaircase),
(st700CommonwealthAve)-[:trip {trip_count: 3, duration: 243.0, distance: 0.2869273935893779}]->(stParkDratBuswellSt),
(st700CommonwealthAve)-[:trip {trip_count: 2, duration: 726.0, distance: 2.1799143931205553}]->(stCopleySquareDartmouthStatBoylstonSt),
(st700CommonwealthAve)-[:trip {trip_count: 4, duration: 645.5, distance: 1.2393123302191091}]->(stLongwoodAveatBinneySt),
(st700CommonwealthAve)-[:trip {trip_count: 2, duration: 622.0, distance: -1}]->(stCoolidgeCornerBeaconStatCentreSt),
(st700CommonwealthAve)-[:trip {trip_count: 1, duration: 869.0, distance: 1.7448723328367821}]->(stOneBrighamCircle),
(st700CommonwealthAve)-[:trip {trip_count: 1, duration: 790.0, distance: -1}]->(stInmanSquareatSpringfieldSt),
(st700CommonwealthAve)-[:trip {trip_count: 2, duration: 908.0, distance: 2.962714257352655}]->(stCharlesCircleCharlesStatCambridgeSt),
(st700CommonwealthAve)-[:trip {trip_count: 1, duration: 3091.0, distance: -1}]->(stDavisSquare),
(st700CommonwealthAve)-[:trip {trip_count: 1, duration: 1541.0, distance: -1}]->(stGoreStreetatLambertStreet),
(st700CommonwealthAve)-[:trip {trip_count: 1, duration: 940.0, distance: 2.5881791193194554}]->(stStuartStatBerkeleySt),
(st700CommonwealthAve)-[:trip {trip_count: 1, duration: 1342.0, distance: 3.559733283156346}]->(stTremontStatHamiltonPl),
(st700CommonwealthAve)-[:trip {trip_count: 2, duration: 1608.0, distance: 4.869072724642384}]->(stPier4BlvdatAutumnLn),
(st700CommonwealthAve)-[:trip {trip_count: 1, duration: 871.0, distance: -1}]->(stVerizonInnovationHub10WareStreet),
(st700CommonwealthAve)-[:trip {trip_count: 1, duration: 592.0, distance: -1}]->(stMarionStatHarvardSt),
(st700CommonwealthAve)-[:trip {trip_count: 1, duration: 1405.0, distance: 1.8275669082306818}]->(stStAlphonsusStatTremontSt),
(st700CommonwealthAve)-[:trip {trip_count: 1, duration: 1141.0, distance: -1}]->(st75BinneySt),
(st700CommonwealthAve)-[:trip {trip_count: 1, duration: 1822.0, distance: 1.9805507803182958}]->(stRugglesTStopColumbusAveatMelneaCassBlvd),
(st700CommonwealthAve)-[:trip {trip_count: 1, duration: 1275.0, distance: -1}]->(stMainStreetAlbanyStreetTechnologySquare),
(st700CommonwealthAve)-[:trip {trip_count: 1, duration: 1053.0, distance: 3.9400788568408043}]->(stCanalStatCausewaySt),
(st700CommonwealthAve)-[:trip {trip_count: 1, duration: 1085.0, distance: 2.6405848884436027}]->(stWashingtonStatMelneaCassBlvd),
(st700CommonwealthAve)-[:trip {trip_count: 1, duration: 1141.0, distance: -1}]->(stTappanStatBrooklineHillsMBTA),
(st700CommonwealthAve)-[:trip {trip_count: 1, duration: 945.0, distance: 2.9301108452094087}]->(stBostonMedicalCenterEConcordStatHarrisonAve),
(st700CommonwealthAve)-[:trip {trip_count: 1, duration: 1320.0, distance: -1}]->(stCentralSquareatMassAveEssexSt),
(stAddisonStatSaratogaSt)-[:trip {trip_count: 1, duration: 310.0, distance: 0.7633651684274041}]->(stOrientHeightsTStopBenningtonStatSaratogaSt),
(stAirportTStopBremenStatBrooksSt)-[:trip {trip_count: 1, duration: 728.0, distance: 2.604779630757342}]->(stOrientHeightsTStopBenningtonStatSaratogaSt),
(stAirportTStopBremenStatBrooksSt)-[:trip {trip_count: 1, duration: 771.0, distance: 1.157685164195223}]->(stPorzioPark),
(stAirportTStopBremenStatBrooksSt)-[:trip {trip_count: 1, duration: 1267.0, distance: -1}]->(stChelseaSquare),
(stAirportTStopBremenStatBrooksSt)-[:trip {trip_count: 1, duration: 284.0, distance: 0.7090735070525087}]->(stMaverickStatMassportPath),
(stAlbanyStatEBrooklineSt)-[:trip {trip_count: 3, duration: 669.0, distance: 1.4621612215064075}]->(stStuartStatBerkeleySt),
(stAlbanyStatEBrooklineSt)-[:trip {trip_count: 2, duration: 2004.0, distance: -1}]->(stKendallT),
(stAlbanyStatEBrooklineSt)-[:trip {trip_count: 6, duration: 399.5, distance: 0.8325553452488264}]->(stSouthEndLibraryTremontStatWNewtonSt),
(stAlbanyStatEBrooklineSt)-[:trip {trip_count: 8, duration: 177.5, distance: 0.4674853656038928}]->(stWashingtonStatRutlandSt),
(stAlbanyStatEBrooklineSt)-[:trip {trip_count: 10, duration: 350.0, distance: 1.0409607026223948}]->(stHarrisonAveatMullinsWay),
(stAlbanyStatEBrooklineSt)-[:trip {trip_count: 4, duration: 1060.5, distance: 2.717681121719711}]->(stDeerfieldStatCommonwealthAve),
(stAlbanyStatEBrooklineSt)-[:trip {trip_count: 10, duration: 673.0, distance: 1.631768532096758}]->(stCopleySquareDartmouthStatBoylstonSt),
(stAlbanyStatEBrooklineSt)-[:trip {trip_count: 4, duration: 562.5, distance: 1.4600615741450444}]->(stPrudentialCenter101HuntingtonAve),
(stAlbanyStatEBrooklineSt)-[:trip {trip_count: 2, duration: 355.5, distance: 1.092621549808076}]->(stColumbusAveatWCantonSt),
(stAlbanyStatEBrooklineSt)-[:trip {trip_count: 13, duration: 575.0, distance: 1.6508012382700579}]->(stBoylstonStatBerkeleySt),
(stAlbanyStatEBrooklineSt)-[:trip {trip_count: 5, duration: 812.0, distance: 2.5062800461046755}]->(stOneBeaconSt),
(stAlbanyStatEBrooklineSt)-[:trip {trip_count: 16, duration: 479.5, distance: 1.5281830960078588}]->(stHarrisonAveatBennetSt),
(stAlbanyStatEBrooklineSt)-[:trip {trip_count: 6, duration: 285.5, distance: 0.9621248245695239}]->(stTroyBoston),
(stAlbanyStatEBrooklineSt)-[:trip {trip_count: 14, duration: 344.0, distance: 1.1324971568332038}]->(stInkBlockHarrisonAveatHeraldSt),
(stAlbanyStatEBrooklineSt)-[:trip {trip_count: 2, duration: 455.5, distance: 1.0935807572255698}]->(stWashingtonStatMelneaCassBlvd),
(stAlbanyStatEBrooklineSt)-[:trip {trip_count: 6, duration: 585.0, distance: 2.0895691053803485}]->(stTremontStatWestSt),
(stAlbanyStatEBrooklineSt)-[:trip {trip_count: 2, duration: 1432.0, distance: 4.443593825571949}]->(stCommonwealthAveatAgganisWay),
(stAlbanyStatEBrooklineSt)-[:trip {trip_count: 3, duration: 970.0, distance: 2.76064502115139}]->(stSurfaceRdatIndiaSt),
(stAlbanyStatEBrooklineSt)-[:trip {trip_count: 1, duration: 1730.0, distance: 4.833399288640289}]->(stPackardsCornerCommonwealthAveatBrightonAve),
(stAlbanyStatEBrooklineSt)-[:trip {trip_count: 8, duration: 581.0, distance: 2.0477523645593587}]->(stSouthStation700AtlanticAve),
(stAlbanyStatEBrooklineSt)-[:trip {trip_count: 17, duration: 791.0, distance: 1.7952275366338823}]->(stForsythStatHuntingtonAve),
(stAlbanyStatEBrooklineSt)-[:trip {trip_count: 6, duration: 606.0, distance: 1.4167002379829279}]->(stBackBayTStopDartmouthStatStuartSt),
(stAlbanyStatEBrooklineSt)-[:trip {trip_count: 10, duration: 497.0, distance: 1.8266332521271909}]->(stChinatownTStop),
(stAlbanyStatEBrooklineSt)-[:trip {trip_count: 5, duration: 508.0, distance: 1.5657319658464999}]->(stRugglesTStopColumbusAveatMelneaCassBlvd),
(stAlbanyStatEBrooklineSt)-[:trip {trip_count: 2, duration: 760.0, distance: 1.678925921708167}]->(stBoylstonStatExeterSt),
(stAlbanyStatEBrooklineSt)-[:trip {trip_count: 2, duration: 387.0, distance: -1}]->(stBroadwayTStop),
(stAlbanyStatEBrooklineSt)-[:trip {trip_count: 11, duration: 590.0, distance: 1.5799809851259605}]->(stStateStreetatChannelCenter),
(stAlbanyStatEBrooklineSt)-[:trip {trip_count: 1, duration: 1055.0, distance: 2.896658342536901}]->(stBrighamCircleFrancisStatHuntingtonAve),
(stAlbanyStatEBrooklineSt)-[:trip {trip_count: 2, duration: 615.0, distance: 1.296060153689018}]->(stMassAveTStation),
(stAlbanyStatEBrooklineSt)-[:trip {trip_count: 1, duration: 708.0, distance: 1.8686977535625404}]->(stWBroadwayatDorchesterSt),
(stAlbanyStatEBrooklineSt)-[:trip {trip_count: 4, duration: 810.0, distance: 2.306731928751888}]->(stTremontStatHamiltonPl),
(stAlbanyStatEBrooklineSt)-[:trip {trip_count: 3, duration: 1087.0, distance: 3.5764567307753343}]->(stBUCentral725CommAve),
(stAlbanyStatEBrooklineSt)-[:trip {trip_count: 6, duration: 618.5, distance: 1.6268164187576628}]->(stStuartStatCharlesSt),
(stAlbanyStatEBrooklineSt)-[:trip {trip_count: 2, duration: 675.0, distance: 2.6846452203384676}]->(stGovernmentCenterCambridgeStatCourtSt),
(stAlbanyStatEBrooklineSt)-[:trip {trip_count: 4, duration: 258.0, distance: 0.5478417926885578}]->(stWashingtonStatWalthamSt),
(stAlbanyStatEBrooklineSt)-[:trip {trip_count: 2, duration: 552.0, distance: 1.4642933907962774}]->(stWBroadwayatDSt),
(stAlbanyStatEBrooklineSt)-[:trip {trip_count: 2, duration: 1859.5, distance: -1}]->(stHarvardStandStedmanSt),
(stAlbanyStatEBrooklineSt)-[:trip {trip_count: 5, duration: 623.0, distance: 1.5917230737673773}]->(stChristianSciencePlazaMassachusettsAveatWestlandAve),
(stAlbanyStatEBrooklineSt)-[:trip {trip_count: 2, duration: 1042.5, distance: 2.6911353310480464}]->(stCharlesCircleCharlesStatCambridgeSt),
(stAlbanyStatEBrooklineSt)-[:trip {trip_count: 1, duration: 1170.0, distance: -1}]->(stMassAveatAlbanySt),
(stAlbanyStatEBrooklineSt)-[:trip {trip_count: 1, duration: 1138.0, distance: 3.0956980644488157}]->(stCrossStatHanoverSt),
(stAlbanyStatEBrooklineSt)-[:trip {trip_count: 1, duration: 411.0, distance: 0.9738586576281777}]->(stTremontStatEBerkeleySt),
(stAlbanyStatEBrooklineSt)-[:trip {trip_count: 1, duration: 1050.0, distance: -1}]->(stMITStataCenteratVassarStMainSt),
(stAlbanyStatEBrooklineSt)-[:trip {trip_count: 1, duration: 1253.0, distance: 3.2152478520534777}]->(st700CommonwealthAve),
(stAlbanyStatEBrooklineSt)-[:trip {trip_count: 1, duration: 857.0, distance: 2.5084931977378946}]->(stSeaportBlvdatSleeperSt),
(stAlbanyStatEBrooklineSt)-[:trip {trip_count: 1, duration: 736.0, distance: 1.744803220067729}]->(stBoylstonStatFairfieldSt),
(stAlbanyStatEBrooklineSt)-[:trip {trip_count: 3, duration: 587.0, distance: 1.256878186930469}]->(stDorchesterAveatGillettePark),
(stAlbanyStatEBrooklineSt)-[:trip {trip_count: 2, duration: 627.0, distance: 1.5634857778057512}]->(stFlat9atWhittier),
(stAlbanyStatEBrooklineSt)-[:trip {trip_count: 1, duration: 379.0, distance: 0.7862478363951629}]->(stTremontStatWDedhamSt),
(stAlbanyStatEBrooklineSt)-[:trip {trip_count: 1, duration: 994.0, distance: 3.2502869251044575}]->(stNashuaStreetatRedAuerbachWay),
(stAlbanyStatEBrooklineSt)-[:trip {trip_count: 2, duration: 1494.5, distance: -1}]->(stCentralSquareatMassAveEssexSt),
(stAlbanyStatEBrooklineSt)-[:trip {trip_count: 3, duration: 717.0, distance: 2.2394851412064565}]->(stTheLawnonD),
(stAlbanyStatEBrooklineSt)-[:trip {trip_count: 1, duration: 741.0, distance: 2.531973933952309}]->(stWatermarkSeaportBostonWharfRdatSeaportBlvd),
(stAlbanyStatEBrooklineSt)-[:trip {trip_count: 1, duration: 1028.0, distance: 2.752880855979369}]->(stCambridgeStatJoySt),
(stAquariumTStop200AtlanticAve)-[:trip {trip_count: 6, duration: 686.5, distance: 2.5126281843712293}]->(stIDBuildingEast),
(stAquariumTStop200AtlanticAve)-[:trip {trip_count: 14, duration: 512.0, distance: 1.4717398486332742}]->(stSeaportHotelCongressStatSeaportLn),
(stAquariumTStop200AtlanticAve)-[:trip {trip_count: 7, duration: 681.0, distance: 1.7180371272930541}]->(stShawmutAveatOakStW),
(stAquariumTStop200AtlanticAve)-[:trip {trip_count: 14, duration: 1014.5, distance: 2.6894395656744106}]->(stTremontStatWDedhamSt),
(stAquariumTStop200AtlanticAve)-[:trip {trip_count: 2, duration: 444.0, distance: 0.2044213050340895}]->(stSurfaceRdatIndiaSt),
(stAquariumTStop200AtlanticAve)-[:trip {trip_count: 9, duration: 160.0, distance: 0.4425841904092378}]->(stLewisWharfatAtlanticAve),
(stAquariumTStop200AtlanticAve)-[:trip {trip_count: 9, duration: 323.0, distance: 0.7951204099250127}]->(stSeaportBlvdatSleeperSt),
(stAquariumTStop200AtlanticAve)-[:trip {trip_count: 2, duration: 646.0, distance: 1.6186050759964352}]->(stParkPlazaatCharlesStS),
(stAquariumTStop200AtlanticAve)-[:trip {trip_count: 2, duration: 300.5, distance: 0.8820253005334112}]->(stSurfaceRdatSummerSt),
(stAquariumTStop200AtlanticAve)-[:trip {trip_count: 2, duration: 471.0, distance: -1}]->(stBoylstonStatCharlesStTempWinterLocation),
(stAquariumTStop200AtlanticAve)-[:trip {trip_count: 2, duration: 730.0, distance: 1.9262524229263935}]->(stHarrisonAveatMullinsWay),
(stAquariumTStop200AtlanticAve)-[:trip {trip_count: 15, duration: 375.0, distance: 1.0389037058603467}]->(stWatermarkSeaportBostonWharfRdatSeaportBlvd),
(stAquariumTStop200AtlanticAve)-[:trip {trip_count: 8, duration: 168.5, distance: 0.49909380683302806}]->(stCrossStatHanoverSt),
(stAquariumTStop200AtlanticAve)-[:trip {trip_count: 5, duration: 839.0, distance: 2.404903330180022}]->(stCopleySquareDartmouthStatBoylstonSt),
(stAquariumTStop200AtlanticAve)-[:trip {trip_count: 1, duration: 595.0, distance: 1.4588163078971665}]->(stHarrisonAveatBennetSt),
(stAquariumTStop200AtlanticAve)-[:trip {trip_count: 1, duration: 2385.0, distance: 4.774288808307634}]->(stOrientHeightsTStopBenningtonStatSaratogaSt),
(stAquariumTStop200AtlanticAve)-[:trip {trip_count: 3, duration: 393.0, distance: 0.31367340287704365}]->(stRowesWharfatAtlanticAve),
(stAquariumTStop200AtlanticAve)-[:trip {trip_count: 2, duration: 362.5, distance: 1.2133527513822844}]->(stPier4BlvdatAutumnLn),
(stAquariumTStop200AtlanticAve)-[:trip {trip_count: 2, duration: 435.0, distance: 0.8434866691990014}]->(stValentiWayatHaverhillSt),
(stAquariumTStop200AtlanticAve)-[:trip {trip_count: 8, duration: 173.0, distance: 0.6015436645266014}]->(stPurchaseStatPearlSt),
(stAquariumTStop200AtlanticAve)-[:trip {trip_count: 5, duration: 605.0, distance: 1.7346636901869843}]->(stCongressStatNorthernAve),
(stAquariumTStop200AtlanticAve)-[:trip {trip_count: 2, duration: 1358.0, distance: -1}]->(stCentralSqPostOfficeCambridgeCityHallatMassAvePleasantSt),
(stAquariumTStop200AtlanticAve)-[:trip {trip_count: 1, duration: 490.0, distance: 1.5138390919289728}]->(stWarrenStatChelseaSt),
(stAquariumTStop200AtlanticAve)-[:trip {trip_count: 1, duration: 423.0, distance: 1.1483859490546489}]->(stCambridgeStatJoySt),
(stAquariumTStop200AtlanticAve)-[:trip {trip_count: 2, duration: 987.0, distance: 2.20000826253373}]->(stTremontStatEBerkeleySt),
(stAquariumTStop200AtlanticAve)-[:trip {trip_count: 2, duration: 1491.0, distance: -1}]->(stCentralSquareatMassAveEssexSt),
(stAquariumTStop200AtlanticAve)-[:trip {trip_count: 7, duration: 315.0, distance: 0.9244184744606354}]->(stSouthStation700AtlanticAve),
(stAquariumTStop200AtlanticAve)-[:trip {trip_count: 11, duration: 448.0, distance: 1.1027379336437069}]->(stSeaportSquareSeaportBlvdatNorthernAve),
(stAquariumTStop200AtlanticAve)-[:trip {trip_count: 3, duration: 1836.0, distance: 5.159917325327251}]->(stBrighamCircleFrancisStatHuntingtonAve),
(stAquariumTStop200AtlanticAve)-[:trip {trip_count: 3, duration: 1504.0, distance: 1.8331805973282576}]->(stInkBlockHarrisonAveatHeraldSt),
(stAquariumTStop200AtlanticAve)-[:trip {trip_count: 1, duration: 281.0, distance: 0.6874552237882064}]->(stGovernmentCenterCambridgeStatCourtSt),
(stAquariumTStop200AtlanticAve)-[:trip {trip_count: 3, duration: 1151.0, distance: 3.3386035812062786}]->(stMassAveTStation),
(stAquariumTStop200AtlanticAve)-[:trip {trip_count: 1, duration: 838.0, distance: 2.7520328790379014}]->(stHarrisonAveatEDedhamSt),
(stAquariumTStop200AtlanticAve)-[:trip {trip_count: 1, duration: 1606.0, distance: 4.789453319892591}]->(stBUCentral725CommAve),
(stAquariumTStop200AtlanticAve)-[:trip {trip_count: 2, duration: 903.0, distance: 2.697502958947425}]->(stWBroadwayatDorchesterSt),
(stAquariumTStop200AtlanticAve)-[:trip {trip_count: 2, duration: 216.0, distance: 0.5211612198139637}]->(stBostonCityHall28StateSt),
(stAquariumTStop200AtlanticAve)-[:trip {trip_count: 1, duration: 1025.0, distance: 4.135623969701651}]->(stBoylstonStatJerseySt),
(stAquariumTStop200AtlanticAve)-[:trip {trip_count: 2, duration: 602.5, distance: 1.1224392711553648}]->(stTremontStatWestSt),
(stAquariumTStop200AtlanticAve)-[:trip {trip_count: 4, duration: 458.0, distance: 1.245157202237739}]->(stChinatownTStop),
(stAquariumTStop200AtlanticAve)-[:trip {trip_count: 2, duration: 841.5, distance: 1.2337474036731402}]->(stNashuaStreetatRedAuerbachWay),
(stAquariumTStop200AtlanticAve)-[:trip {trip_count: 1, duration: 446.0, distance: 1.756743239433892}]->(stStateStreetatChannelCenter),
(stAquariumTStop200AtlanticAve)-[:trip {trip_count: 3, duration: 2276.0, distance: 0.9183692074177547}]->(stFanPier),
(stAquariumTStop200AtlanticAve)-[:trip {trip_count: 1, duration: 685.0, distance: 2.3402205480310916}]->(stIDBuildingWest),
(stAquariumTStop200AtlanticAve)-[:trip {trip_count: 1, duration: 500.0, distance: 1.6265061627866948}]->(stCharlesCircleCharlesStatCambridgeSt),
(stAquariumTStop200AtlanticAve)-[:trip {trip_count: 2, duration: 300.0, distance: 0.7557270417942639}]->(stArchStatFranklinSt),
(stAquariumTStop200AtlanticAve)-[:trip {trip_count: 1, duration: 813.0, distance: 2.3132172313838795}]->(stWBroadwayatDSt),
(stArchStatFranklinSt)-[:trip {trip_count: 3, duration: 514.0, distance: 0.877494753967297}]->(stCambridgeStatJoySt),
(stArchStatFranklinSt)-[:trip {trip_count: 1, duration: 344.0, distance: 1.1113251714209185}]->(stWatermarkSeaportBostonWharfRdatSeaportBlvd),
(stArchStatFranklinSt)-[:trip {trip_count: 5, duration: 696.0, distance: 2.6926342441789495}]->(stTremontStatNorthamptonSt),
(stArchStatFranklinSt)-[:trip {trip_count: 8, duration: 533.0, distance: 1.7637369112292525}]->(stWashingtonStatWalthamSt),
(stArchStatFranklinSt)-[:trip {trip_count: 1, duration: 1081.0, distance: 2.1829784860933334}]->(stSouthEndLibraryTremontStatWNewtonSt),
(stArchStatFranklinSt)-[:trip {trip_count: 4, duration: 544.5, distance: 1.216040908339217}]->(stHarrisonAveatMullinsWay),
(stArchStatFranklinSt)-[:trip {trip_count: 2, duration: 600.0, distance: 1.4484442361100465}]->(stTremontStatEBerkeleySt),
(stArchStatFranklinSt)-[:trip {trip_count: 3, duration: 365.0, distance: 1.14292740317048}]->(stFanPier),
(stArchStatFranklinSt)-[:trip {trip_count: 1, duration: 302.0, distance: 0.5888790159696862}]->(stSurfaceRdatIndiaSt),
(stArchStatFranklinSt)-[:trip {trip_count: 2, duration: 451.5, distance: 1.1250907612370697}]->(stLewisWharfatAtlanticAve),
(stArchStatFranklinSt)-[:trip {trip_count: 1, duration: 1395.0, distance: 2.612669439340799}]->(stChristianSciencePlazaMassachusettsAveatWestlandAve),
(stArchStatFranklinSt)-[:trip {trip_count: 1, duration: 384.0, distance: 0.8603961573039693}]->(stSeaportBlvdatSleeperSt),
(stArchStatFranklinSt)-[:trip {trip_count: 1, duration: 1058.0, distance: 0.42247895494278737}]->(stTremontStatWestSt),
(stArchStatFranklinSt)-[:trip {trip_count: 1, duration: 1169.0, distance: -1}]->(stBroadCanalWayatThirdStreet),
(stArchStatFranklinSt)-[:trip {trip_count: 4, duration: 514.5, distance: 1.2514458100710646}]->(stPier4BlvdatAutumnLn),
(stArchStatFranklinSt)-[:trip {trip_count: 2, duration: 143.5, distance: 0.40167041602211}]->(stBostonCityHall28StateSt),
(stArchStatFranklinSt)-[:trip {trip_count: 2, duration: 670.5, distance: 1.9357194031235725}]->(stTremontStatWDedhamSt),
(stArchStatFranklinSt)-[:trip {trip_count: 3, duration: 340.0, distance: 1.1253549918054873}]->(stInkBlockHarrisonAveatHeraldSt),
(stArchStatFranklinSt)-[:trip {trip_count: 1, duration: 160.0, distance: 0.5681492516384967}]->(stCongressStatBostonCityHall),
(stArchStatFranklinSt)-[:trip {trip_count: 1, duration: 1807.0, distance: -1}]->(stPorterSquareStation),
(stArchStatFranklinSt)-[:trip {trip_count: 3, duration: 471.0, distance: 0.8500628122950707}]->(stCrossStatHanoverSt),
(stArchStatFranklinSt)-[:trip {trip_count: 1, duration: 840.0, distance: 2.3138273986762115}]->(stMainStatAustinSt),
(stArchStatFranklinSt)-[:trip {trip_count: 2, duration: 1086.5, distance: 3.5277562084919896}]->(stMurphySkatingRink1880DayBlvd),
(stArchStatFranklinSt)-[:trip {trip_count: 2, duration: 2283.0, distance: -1}]->(stDanehyPark),
(stArchStatFranklinSt)-[:trip {trip_count: 2, duration: 862.5, distance: 2.277436338996531}]->(stWashingtonStatRutlandSt),
(stArchStatFranklinSt)-[:trip {trip_count: 2, duration: 283.0, distance: 0.7557270417942639}]->(stAquariumTStop200AtlanticAve),
(stArchStatFranklinSt)-[:trip {trip_count: 2, duration: 518.0, distance: 0.967491037259444}]->(stShawmutAveatOakStW),
(stArchStatFranklinSt)-[:trip {trip_count: 1, duration: 159.0, distance: 0.4215708529357937}]->(stPurchaseStatPearlSt),
(stArchStatFranklinSt)-[:trip {trip_count: 1, duration: 391.0, distance: 0.8786723662571673}]->(stParkPlazaatCharlesStS),
(stArchStatFranklinSt)-[:trip {trip_count: 1, duration: 598.0, distance: 1.873456028593153}]->(stCongressStatNorthernAve),
(stArchStatFranklinSt)-[:trip {trip_count: 2, duration: 190.0, distance: 0.7299732775482072}]->(stHarrisonAveatBennetSt),
(stArchStatFranklinSt)-[:trip {trip_count: 1, duration: 559.0, distance: 1.8585370331751554}]->(stBoylstonStatExeterSt),
(stArchStatFranklinSt)-[:trip {trip_count: 1, duration: 987.0, distance: 1.0497142461762876}]->(stValentiWayatHaverhillSt),
(stArchStatFranklinSt)-[:trip {trip_count: 1, duration: 751.0, distance: 2.826255683146213}]->(stWashingtonStatLenoxSt),
(stArchStatFranklinSt)-[:trip {trip_count: 1, duration: 229.0, distance: 0.45221826370904156}]->(stChinatownGatePlaza),
(stArchStatFranklinSt)-[:trip {trip_count: 1, duration: 726.0, distance: 2.369508126455503}]->(stWBroadwayatDorchesterSt),
(stArchStatFranklinSt)-[:trip {trip_count: 1, duration: 920.0, distance: 2.132555807584196}]->(st645SummerSt),
(stAshmontTStop)-[:trip {trip_count: 1, duration: 513.0, distance: 1.5366628144550147}]->(stMortonStatGallivanBlvd),
(stAshmontTStop)-[:trip {trip_count: 1, duration: 2444.0, distance: 7.482135823970492}]->(stWatermarkSeaportBostonWharfRdatSeaportBlvd),
(stBUCentral725CommAve)-[:trip {trip_count: 25, duration: 278.0, distance: 0.9128983102648213}]->(stDeerfieldStatCommonwealthAve),
(stBUCentral725CommAve)-[:trip {trip_count: 31, duration: 312.0, distance: 0.8953743977264172}]->(stCommonwealthAveatAgganisWay),
(stBUCentral725CommAve)-[:trip {trip_count: 4, duration: 418.0, distance: 0.8915061568163828}]->(stLandmarkCenterBrooklineAveatParkDr),
(stBUCentral725CommAve)-[:trip {trip_count: 3, duration: 997.0, distance: -1}]->(stHarvardSquareatMassAveDunster),
(stBUCentral725CommAve)-[:trip {trip_count: 14, duration: 192.5, distance: 0.36938092560866315}]->(st700CommonwealthAve),
(stBUCentral725CommAve)-[:trip {trip_count: 3, duration: 505.0, distance: -1}]->(stMITPacificStatPurringtonSt),
(stBUCentral725CommAve)-[:trip {trip_count: 13, duration: 1071.0, distance: 2.965197682828068}]->(stMugarWayatBeaconSt),
(stBUCentral725CommAve)-[:trip {trip_count: 10, duration: 382.0, distance: 1.2945418417376855}]->(stPackardsCornerCommonwealthAveatBrightonAve),
(stBUCentral725CommAve)-[:trip {trip_count: 1, duration: 458.0, distance: 1.7976500227978256}]->(stBoylstonStatMassachusettsAve),
(stBUCentral725CommAve)-[:trip {trip_count: 5, duration: 1197.0, distance: 3.7538408764572297}]->(stChinatownTStop),
(stBUCentral725CommAve)-[:trip {trip_count: 23, duration: 229.0, distance: 0.641059615633678}]->(stSilberWay),
(stBUCentral725CommAve)-[:trip {trip_count: 1, duration: 618.0, distance: -1}]->(stHarvardStandStedmanSt),
(stBUCentral725CommAve)-[:trip {trip_count: 4, duration: 248.5, distance: 0.42865956977180814}]->(stParkDratBuswellSt),
(stBUCentral725CommAve)-[:trip {trip_count: 1, duration: 3360.0, distance: -1}]->(stArsenalYards),
(stBUCentral725CommAve)-[:trip {trip_count: 2, duration: 897.0, distance: 1.8063267726458987}]->(stHarvardAveatBrainerdRd),
(stBUCentral725CommAve)-[:trip {trip_count: 2, duration: 439.5, distance: -1}]->(stMITVassarSt),
(stBUCentral725CommAve)-[:trip {trip_count: 2, duration: 769.5, distance: 1.9194892426020254}]->(stForsythStatHuntingtonAve),
(stBUCentral725CommAve)-[:trip {trip_count: 6, duration: 233.5, distance: -1}]->(stStMarys),
(stBUCentral725CommAve)-[:trip {trip_count: 1, duration: 930.0, distance: -1}]->(stCentralSquareatMassAveEssexSt),
(stBUCentral725CommAve)-[:trip {trip_count: 4, duration: 645.5, distance: 1.9917957882384152}]->(stChristianSciencePlazaMassachusettsAveatWestlandAve),
(stBUCentral725CommAve)-[:trip {trip_count: 1, duration: 1424.0, distance: -1}]->(stBoylstonStatCharlesStTempWinterLocation),
(stBUCentral725CommAve)-[:trip {trip_count: 5, duration: 1086.0, distance: 2.136675184111169}]->(stBoylstonStatFairfieldSt),
(stBUCentral725CommAve)-[:trip {trip_count: 2, duration: 1061.5, distance: 2.538771691069752}]->(stCopleySquareDartmouthStatBoylstonSt),
(stBUCentral725CommAve)-[:trip {trip_count: 6, duration: 380.0, distance: -1}]->(stCommonwealthAveAtBabcockSt),
(stBUCentral725CommAve)-[:trip {trip_count: 5, duration: 1184.0, distance: 3.991338615154304}]->(stWestEndPark),
(stBUCentral725CommAve)-[:trip {trip_count: 2, duration: 1755.5, distance: -1}]->(stMuseumofScience),
(stBUCentral725CommAve)-[:trip {trip_count: 2, duration: 958.5, distance: -1}]->(stMITHaywardStatAmherstSt),
(stBUCentral725CommAve)-[:trip {trip_count: 1, duration: 432.0, distance: -1}]->(stSidneyResearchCampusErieStreetatWaverly),
(stBUCentral725CommAve)-[:trip {trip_count: 1, duration: 665.0, distance: 2.281100952999001}]->(stMassAveTStation),
(stBUCentral725CommAve)-[:trip {trip_count: 1, duration: 639.0, distance: 1.3060369920414774}]->(stCollegesoftheFenwayFenwayatAvenueLouisPasteur),
(stBUCentral725CommAve)-[:trip {trip_count: 1, duration: 2347.0, distance: 3.733007339473514}]->(stCambridgeStatJoySt),
(stBUCentral725CommAve)-[:trip {trip_count: 4, duration: 395.5, distance: 0.9452455536827581}]->(stKenmoreSquare),
(stBUCentral725CommAve)-[:trip {trip_count: 1, duration: 1688.0, distance: -1}]->(stUnionSquareEast),
(stBUCentral725CommAve)-[:trip {trip_count: 2, duration: 355.0, distance: 1.1045085299104278}]->(stBoylstonStatJerseySt),
(stBUCentral725CommAve)-[:trip {trip_count: 1, duration: 715.0, distance: -1}]->(stLafayetteSquareatMassAveMainStColumbiaSt),
(stBUCentral725CommAve)-[:trip {trip_count: 1, duration: 1351.0, distance: 4.3377775622671235}]->(stSouthStation700AtlanticAve),
(stBUCentral725CommAve)-[:trip {trip_count: 1, duration: 1125.0, distance: 3.9952794403353113}]->(stNashuaStreetatRedAuerbachWay),
(stBUCentral725CommAve)-[:trip {trip_count: 1, duration: 1081.0, distance: 2.614434057836896}]->(stCommonwealthAveatKeltonSt),
(stBUCentral725CommAve)-[:trip {trip_count: 1, duration: 667.0, distance: -1}]->(stSennottParkBroadwayatNorfolkStreet),
(stBUCentral725CommAve)-[:trip {trip_count: 1, duration: 946.0, distance: 2.4079936583151915}]->(stUnionSquareBrightonAveatCambridgeSt),
(stBUCentral725CommAve)-[:trip {trip_count: 1, duration: 514.0, distance: -1}]->(stDanaPark),
(stBUCentral725CommAve)-[:trip {trip_count: 1, duration: 1048.0, distance: -1}]->(stVerizonInnovationHub10WareStreet),
(stBUCentral725CommAve)-[:trip {trip_count: 1, duration: 878.0, distance: 2.618666675888674}]->(stBackBayTStopDartmouthStatStuartSt),
(stBUCentral725CommAve)-[:trip {trip_count: 1, duration: 891.0, distance: -1}]->(stHarvardUniversityRiverHousesatDeWolfeStCowperthwaiteSt),
(stBUCentral725CommAve)-[:trip {trip_count: 1, duration: 1711.0, distance: 3.9592194979573674}]->(stOneBeaconSt),
(stBUCentral725CommAve)-[:trip {trip_count: 2, duration: 2118.0, distance: 1.992855320919913}]->(stHonanLibrary),
(stBUCentral725CommAve)-[:trip {trip_count: 2, duration: 824.5, distance: 1.9968327817150129}]->(stInnovationLab125WesternAveatBattenWay),
(stBUCentral725CommAve)-[:trip {trip_count: 1, duration: 907.0, distance: 3.259168306814719}]->(stCharlesCircleCharlesStatCambridgeSt),
(stBUCentral725CommAve)-[:trip {trip_count: 1, duration: 1771.0, distance: 4.324846018131445}]->(stValentiWayatHaverhillSt),
(stBUCentral725CommAve)-[:trip {trip_count: 1, duration: 1275.0, distance: 3.3816475449804484}]->(stWashingtonStatWalthamSt),
(stBUCentral725CommAve)-[:trip {trip_count: 1, duration: 1192.0, distance: -1}]->(stOneKendallSquareatHampshireStPortlandSt),
(stBUCentral725CommAve)-[:trip {trip_count: 1, duration: 602.0, distance: 1.7461441444372894}]->(stSoldiersFieldPark111WesternAve),
(stBUCentral725CommAve)-[:trip {trip_count: 1, duration: 1700.0, distance: -1}]->(stDanehyParkatNewStreet),
(stBUCentral725CommAve)-[:trip {trip_count: 1, duration: 1779.0, distance: 4.627923788510557}]->(stStateStreetatChannelCenter),
(stBUCentral725CommAve)-[:trip {trip_count: 1, duration: 481.0, distance: -1}]->(st1200BeaconSt),
(stBUCentral725CommAve)-[:trip {trip_count: 1, duration: 977.0, distance: 2.8762465504553894}]->(stBoylstonStatBerkeleySt),
(stBackBayTStopDartmouthStatStuartSt)-[:trip {trip_count: 43, duration: 284.0, distance: 0.7500347308675029}]->(stSouthEndLibraryTremontStatWNewtonSt),
(stBackBayTStopDartmouthStatStuartSt)-[:trip {trip_count: 7, duration: 747.0, distance: 2.352988200543157}]->(stRowesWharfatAtlanticAve),
(stBackBayTStopDartmouthStatStuartSt)-[:trip {trip_count: 3, duration: 197.0, distance: 0.29170924042071283}]->(stBoylstonStatExeterSt),
(stBackBayTStopDartmouthStatStuartSt)-[:trip {trip_count: 5, duration: 449.0, distance: 1.3304402576940373}]->(stTremontStatWestSt),
(stBackBayTStopDartmouthStatStuartSt)-[:trip {trip_count: 2, duration: 735.5, distance: 2.174249254179953}]->(stLandmarkCenterBrooklineAveatParkDr),
(stBackBayTStopDartmouthStatStuartSt)-[:trip {trip_count: 23, duration: 354.0, distance: 0.9587515649479681}]->(stWashingtonStatWalthamSt),
(stBackBayTStopDartmouthStatStuartSt)-[:trip {trip_count: 5, duration: 487.0, distance: 1.460065385632434}]->(stChinatownGatePlaza),
(stBackBayTStopDartmouthStatStuartSt)-[:trip {trip_count: 8, duration: 182.5, distance: 0.4346503840260387}]->(stBoylstonStatBerkeleySt),
(stBackBayTStopDartmouthStatStuartSt)-[:trip {trip_count: 8, duration: 744.0, distance: 1.7476524428519036}]->(stBoylstonStatJerseySt),
(stBackBayTStopDartmouthStatStuartSt)-[:trip {trip_count: 19, duration: 264.0, distance: 0.9113241073610097}]->(stStuartStatCharlesSt),
(stBackBayTStopDartmouthStatStuartSt)-[:trip {trip_count: 12, duration: 646.5, distance: -1}]->(stMITHaywardStatAmherstSt),
(stBackBayTStopDartmouthStatStuartSt)-[:trip {trip_count: 4, duration: 870.5, distance: 2.63222001454903}]->(stPier4BlvdatAutumnLn),
(stBackBayTStopDartmouthStatStuartSt)-[:trip {trip_count: 8, duration: 101.5, distance: 0.21695546053075804}]->(stCopleySquareDartmouthStatBoylstonSt),
(stBackBayTStopDartmouthStatStuartSt)-[:trip {trip_count: 8, duration: 420.5, distance: 1.151806014227237}]->(stTremontStatNorthamptonSt),
(stBackBayTStopDartmouthStatStuartSt)-[:trip {trip_count: 3, duration: 1631.0, distance: 3.158843171591559}]->(stMainStatThompsonSq),
(stBackBayTStopDartmouthStatStuartSt)-[:trip {trip_count: 5, duration: 552.0, distance: 1.6157123792688017}]->(stRugglesTStopColumbusAveatMelneaCassBlvd),
(stBackBayTStopDartmouthStatStuartSt)-[:trip {trip_count: 15, duration: 677.0, distance: 1.481770070816325}]->(stCharlesCircleCharlesStatCambridgeSt),
(stBackBayTStopDartmouthStatStuartSt)-[:trip {trip_count: 1, duration: 1767.0, distance: -1}]->(stConwayParkBleacheryCtTempWinterStation),
(stBackBayTStopDartmouthStatStuartSt)-[:trip {trip_count: 1, duration: 1201.0, distance: -1}]->(stCentralSqPostOfficeCambridgeCityHallatMassAvePleasantSt),
(stBackBayTStopDartmouthStatStuartSt)-[:trip {trip_count: 48, duration: 355.0, distance: 1.083105748523389}]->(stWashingtonStatRutlandSt),
(stBackBayTStopDartmouthStatStuartSt)-[:trip {trip_count: 3, duration: 865.0, distance: -1}]->(stOneBroadwayKendallSqatMainSt3rdSt),
(stBackBayTStopDartmouthStatStuartSt)-[:trip {trip_count: 18, duration: 340.5, distance: 0.9047797950586942}]->(stChristianSciencePlazaMassachusettsAveatWestlandAve),
(stBackBayTStopDartmouthStatStuartSt)-[:trip {trip_count: 1, duration: 433.0, distance: 0.6446443236298992}]->(stTremontStatEBerkeleySt),
(stBackBayTStopDartmouthStatStuartSt)-[:trip {trip_count: 1, duration: 674.0, distance: 1.7386311384343447}]->(stWashingtonStatMelneaCassBlvd),
(stBackBayTStopDartmouthStatStuartSt)-[:trip {trip_count: 6, duration: 482.5, distance: 1.4167002379829279}]->(stAlbanyStatEBrooklineSt),
(stBackBayTStopDartmouthStatStuartSt)-[:trip {trip_count: 1, duration: 1393.0, distance: -1}]->(stHarvardUniversityGundHallatQuincyStKirklandSt),
(stBackBayTStopDartmouthStatStuartSt)-[:trip {trip_count: 4, duration: 954.5, distance: -1}]->(stHarvardStatGreeneRoseHeritagePark),
(stBackBayTStopDartmouthStatStuartSt)-[:trip {trip_count: 1, duration: 698.0, distance: -1}]->(stMITCarletonStatAmherstSt),
(stBackBayTStopDartmouthStatStuartSt)-[:trip {trip_count: 3, duration: 634.0, distance: 1.703584195303341}]->(stOneBeaconSt),
(stBackBayTStopDartmouthStatStuartSt)-[:trip {trip_count: 4, duration: 161.5, distance: 0.3781443963504825}]->(stStuartStatBerkeleySt),
(stBackBayTStopDartmouthStatStuartSt)-[:trip {trip_count: 1, duration: 1452.0, distance: 0.9037186101009972}]->(stShawmutAveatOakStW),
(stBackBayTStopDartmouthStatStuartSt)-[:trip {trip_count: 3, duration: 282.0, distance: 0.4834145226093612}]->(stBoylstonStatFairfieldSt),
(stBackBayTStopDartmouthStatStuartSt)-[:trip {trip_count: 6, duration: 949.5, distance: 2.293135356950274}]->(stWBroadwayatDSt),
(stBackBayTStopDartmouthStatStuartSt)-[:trip {trip_count: 3, duration: 743.0, distance: 2.674658323323321}]->(stLongwoodAveatBinneySt),
(stBackBayTStopDartmouthStatStuartSt)-[:trip {trip_count: 1, duration: 1379.0, distance: -1}]->(stMainStreetAlbanyStreetTechnologySquare),
(stBackBayTStopDartmouthStatStuartSt)-[:trip {trip_count: 4, duration: 787.5, distance: 1.8993153634804336}]->(stGovernmentCenterCambridgeStatCourtSt),
(stBackBayTStopDartmouthStatStuartSt)-[:trip {trip_count: 2, duration: 475.5, distance: 1.2391351266978947}]->(stChinatownTStop),
(stBackBayTStopDartmouthStatStuartSt)-[:trip {trip_count: 5, duration: 1061.0, distance: 3.6247998941929787}]->(stSHuntingtonAveatHeathSt),
(stBackBayTStopDartmouthStatStuartSt)-[:trip {trip_count: 5, duration: 710.0, distance: -1}]->(stMassAveatAlbanySt),
(stBackBayTStopDartmouthStatStuartSt)-[:trip {trip_count: 3, duration: 1075.0, distance: 2.9626274063528273}]->(stWarrenStatChelseaSt),
(stBackBayTStopDartmouthStatStuartSt)-[:trip {trip_count: 3, duration: 846.0, distance: -1}]->(stAmesStatMainSt),
(stBackBayTStopDartmouthStatStuartSt)-[:trip {trip_count: 3, duration: 736.0, distance: -1}]->(stLafayetteSquareatMassAveMainStColumbiaSt),
(stBackBayTStopDartmouthStatStuartSt)-[:trip {trip_count: 1, duration: 858.0, distance: 2.5673344187766167}]->(stWatermarkSeaportBostonWharfRdatSeaportBlvd),
(stBackBayTStopDartmouthStatStuartSt)-[:trip {trip_count: 11, duration: 837.0, distance: 2.3502430206757414}]->(stCrossStatHanoverSt),
(stBackBayTStopDartmouthStatStuartSt)-[:trip {trip_count: 4, duration: 564.5, distance: 1.681133449953487}]->(stKenmoreSquare),
(stBackBayTStopDartmouthStatStuartSt)-[:trip {trip_count: 2, duration: 1521.0, distance: -1}]->(st191BeaconSt),
(stBackBayTStopDartmouthStatStuartSt)-[:trip {trip_count: 2, duration: 945.5, distance: 2.401570633835322}]->(stSeaportBlvdatSleeperSt),
(stBackBayTStopDartmouthStatStuartSt)-[:trip {trip_count: 7, duration: 558.0, distance: -1}]->(stMITatMassAveAmherstSt),
(stBackBayTStopDartmouthStatStuartSt)-[:trip {trip_count: 2, duration: 989.0, distance: 2.6738879466376075}]->(stSeaportSquareSeaportBlvdatNorthernAve),
(stBackBayTStopDartmouthStatStuartSt)-[:trip {trip_count: 1, duration: 928.0, distance: -1}]->(stBroadCanalWayatThirdStreet),
(stBackBayTStopDartmouthStatStuartSt)-[:trip {trip_count: 2, duration: 762.5, distance: -1}]->(stMITStataCenteratVassarStMainSt),
(stBackBayTStopDartmouthStatStuartSt)-[:trip {trip_count: 1, duration: 2598.0, distance: 3.723729341067433}]->(stJFKUMassTStop),
(stBackBayTStopDartmouthStatStuartSt)-[:trip {trip_count: 3, duration: 986.0, distance: 1.9409939169329178}]->(stLansdowneTStop),
(stBackBayTStopDartmouthStatStuartSt)-[:trip {trip_count: 2, duration: 1206.5, distance: 5.025810932213191}]->(stUnionSquareBrightonAveatCambridgeSt),
(stBackBayTStopDartmouthStatStuartSt)-[:trip {trip_count: 4, duration: 239.0, distance: 0.6441316955958525}]->(stTremontStatWDedhamSt),
(stBackBayTStopDartmouthStatStuartSt)-[:trip {trip_count: 1, duration: 1447.0, distance: 3.8709835892044753}]->(stSoldiersFieldPark111WesternAve),
(stBackBayTStopDartmouthStatStuartSt)-[:trip {trip_count: 4, duration: 1202.5, distance: -1}]->(stGalileoGalileiWayatFulkersonStBinneySt),
(stBackBayTStopDartmouthStatStuartSt)-[:trip {trip_count: 1, duration: 2162.0, distance: 5.38798800164165}]->(stCurtisHallSouthStatCentreSt),
(stBackBayTStopDartmouthStatStuartSt)-[:trip {trip_count: 4, duration: 379.0, distance: 0.932886570209483}]->(stMassAveTStation),
(stBackBayTStopDartmouthStatStuartSt)-[:trip {trip_count: 3, duration: 831.0, distance: -1}]->(stBroadwayTStop),
(stBackBayTStopDartmouthStatStuartSt)-[:trip {trip_count: 2, duration: 994.5, distance: -1}]->(stAmesStatBroadway),
(stBackBayTStopDartmouthStatStuartSt)-[:trip {trip_count: 6, duration: 773.5, distance: 1.554457039997725}]->(stTremontStatHamiltonPl),
(stBackBayTStopDartmouthStatStuartSt)-[:trip {trip_count: 1, duration: 1066.0, distance: -1}]->(stSidneyResearchCampusErieStreetatWaverly),
(stBackBayTStopDartmouthStatStuartSt)-[:trip {trip_count: 1, duration: 1666.0, distance: -1}]->(stCoolidgeCornerBeaconStatCentreSt),
(stBackBayTStopDartmouthStatStuartSt)-[:trip {trip_count: 1, duration: 631.0, distance: 1.2708942717636804}]->(stTroyBoston),
(stBackBayTStopDartmouthStatStuartSt)-[:trip {trip_count: 2, duration: 1104.0, distance: 2.297620238437452}]->(stSurfaceRdatIndiaSt),
(stBackBayTStopDartmouthStatStuartSt)-[:trip {trip_count: 2, duration: 599.5, distance: 1.9690127302691847}]->(stBostonCityHall28StateSt),
(stBackBayTStopDartmouthStatStuartSt)-[:trip {trip_count: 1, duration: 902.0, distance: -1}]->(stRogersStLandBlvd),
(stBackBayTStopDartmouthStatStuartSt)-[:trip {trip_count: 2, duration: 737.0, distance: 2.056774308601253}]->(stPurchaseStatPearlSt),
(stBackBayTStopDartmouthStatStuartSt)-[:trip {trip_count: 2, duration: 199.0, distance: 0.3777676655239191}]->(stPrudentialCenter101HuntingtonAve),
(stBackBayTStopDartmouthStatStuartSt)-[:trip {trip_count: 4, duration: 901.0, distance: 2.0173560038717877}]->(stStateStreetatChannelCenter),
(stBackBayTStopDartmouthStatStuartSt)-[:trip {trip_count: 2, duration: 1481.5, distance: 2.5273621567803772}]->(stNewmarketSquareTStopMassachusettsAveatNewmarketSquare),
(stBackBayTStopDartmouthStatStuartSt)-[:trip {trip_count: 3, duration: 735.0, distance: -1}]->(stUniversityPark),
(stBackBayTStopDartmouthStatStuartSt)-[:trip {trip_count: 1, duration: 1923.0, distance: 2.914202387145789}]->(stColumbiaRdatTierneyCommunityCenter),
(stBackBayTStopDartmouthStatStuartSt)-[:trip {trip_count: 1, duration: 1154.0, distance: -1}]->(stJohnAhernFieldatKennedyLongfellowSchool),
(stBackBayTStopDartmouthStatStuartSt)-[:trip {trip_count: 1, duration: 863.0, distance: 2.331557399404068}]->(stValentiWayatHaverhillSt),
(stBackBayTStopDartmouthStatStuartSt)-[:trip {trip_count: 8, duration: 398.0, distance: 1.1354258917296762}]->(stHarrisonAveatEDedhamSt),
(stBackBayTStopDartmouthStatStuartSt)-[:trip {trip_count: 1, duration: 846.0, distance: 2.4216867374826263}]->(stRoxburyCrossingTStopColumbusAveatTremontSt),
(stBackBayTStopDartmouthStatStuartSt)-[:trip {trip_count: 2, duration: 517.5, distance: 0.8837481514424761}]->(stMugarWayatBeaconSt),
(stBackBayTStopDartmouthStatStuartSt)-[:trip {trip_count: 2, duration: 546.5, distance: 0.8426742753435523}]->(stBoylstonStatMassachusettsAve),
(stBackBayTStopDartmouthStatStuartSt)-[:trip {trip_count: 1, duration: 980.0, distance: 2.746380825787684}]->(stLewisWharfatAtlanticAve),
(stBackBayTStopDartmouthStatStuartSt)-[:trip {trip_count: 1, duration: 1173.0, distance: 2.245297245122282}]->(stClintonStatNorthSt),
(stBackBayTStopDartmouthStatStuartSt)-[:trip {trip_count: 2, duration: 777.5, distance: 1.7922101448424805}]->(stFlat9atWhittier),
(stBackBayTStopDartmouthStatStuartSt)-[:trip {trip_count: 1, duration: 642.0, distance: 1.0933868804720852}]->(stHarrisonAveatMullinsWay),
(stBackBayTStopDartmouthStatStuartSt)-[:trip {trip_count: 3, duration: 598.0, distance: 1.730991193378274}]->(stSurfaceRdatSummerSt),
(stBackBayTStopDartmouthStatStuartSt)-[:trip {trip_count: 1, duration: 1249.0, distance: 3.1992961205617383}]->(stCongressStatNorthernAve),
(stBackBayTStopDartmouthStatStuartSt)-[:trip {trip_count: 2, duration: 574.0, distance: 1.3297396655360452}]->(stBostonMedicalCenterEConcordStatHarrisonAve),
(stBackBayTStopDartmouthStatStuartSt)-[:trip {trip_count: 1, duration: 877.0, distance: 2.081760233815098}]->(stCongressStatBostonCityHall),
(stBackBayTStopDartmouthStatStuartSt)-[:trip {trip_count: 2, duration: 667.5, distance: 1.5119469680378164}]->(stForsythStatHuntingtonAve),
(stBackBayTStopDartmouthStatStuartSt)-[:trip {trip_count: 1, duration: 793.0, distance: 2.4495588776092796}]->(stAquariumTStop200AtlanticAve),
(stBackBayTStopDartmouthStatStuartSt)-[:trip {trip_count: 1, duration: 1922.0, distance: 2.780732116477293}]->(stOneBrighamCircle),
(stBackBayTStopDartmouthStatStuartSt)-[:trip {trip_count: 3, duration: 812.0, distance: 1.7344731351450287}]->(stCambridgeStatJoySt),
(stBackBayTStopDartmouthStatStuartSt)-[:trip {trip_count: 1, duration: 1892.0, distance: -1}]->(stGrahamandParksSchoolLinnaeanStatWalkerSt),
(stBackBayTStopDartmouthStatStuartSt)-[:trip {trip_count: 4, duration: 809.0, distance: 1.8990392853967601}]->(stBlossomStatCharlesSt),
(stBackBayTStopDartmouthStatStuartSt)-[:trip {trip_count: 1, duration: 744.0, distance: 2.464376785391996}]->(stHMSHSPHAvenueLouisPasteuratLongwoodAve),
(stBackBayTStopDartmouthStatStuartSt)-[:trip {trip_count: 2, duration: 794.0, distance: 1.7868001359027352}]->(stSouthStation700AtlanticAve),
(stBackBayTStopDartmouthStatStuartSt)-[:trip {trip_count: 1, duration: 914.0, distance: -1}]->(stGalileoGalileiWayatMainStreet),
(stBackBayTStopDartmouthStatStuartSt)-[:trip {trip_count: 2, duration: 128.5, distance: 0.37055847270136794}]->(stColumbusAveatWCantonSt),
(stBackBayTStopDartmouthStatStuartSt)-[:trip {trip_count: 1, duration: 687.0, distance: 1.9791070398700157}]->(stSilberWay),
(stBackBayTStopDartmouthStatStuartSt)-[:trip {trip_count: 1, duration: 622.0, distance: 2.202757046106236}]->(stNashuaStreetatRedAuerbachWay),
(stBackBayTStopDartmouthStatStuartSt)-[:trip {trip_count: 4, duration: 541.5, distance: 1.4569537600629456}]->(stWashingtonStatLenoxSt),
(stBackBayTStopDartmouthStatStuartSt)-[:trip {trip_count: 1, duration: 1572.0, distance: -1}]->(stHarvardSquareatMassAveDunster),
(stBackBayTStopDartmouthStatStuartSt)-[:trip {trip_count: 1, duration: 601.0, distance: 1.7070623499440936}]->(stDeerfieldStatCommonwealthAve),
(stBackBayTStopDartmouthStatStuartSt)-[:trip {trip_count: 1, duration: 1154.0, distance: -1}]->(stJFKCrossingatHarvardStThorndikeSt),
(stBackBayTStopDartmouthStatStuartSt)-[:trip {trip_count: 1, duration: 1359.0, distance: -1}]->(stHarvardStandStedmanSt),
(stBackBayTStopDartmouthStatStuartSt)-[:trip {trip_count: 1, duration: 3990.0, distance: -1}]->(stCambridgeCrossingatNorthFirstStreet),
(stBackBayTStopDartmouthStatStuartSt)-[:trip {trip_count: 1, duration: 1254.0, distance: 3.5127808491909756}]->(stCommonwealthAveatAgganisWay),
(stBartlettStatJohnElliotSq)-[:trip {trip_count: 6, duration: 339.5, distance: 1.0832822626906624}]->(stForsythStatHuntingtonAve),
(stBartlettStatJohnElliotSq)-[:trip {trip_count: 11, duration: 305.0, distance: 0.7748892681519817}]->(stRugglesTStopColumbusAveatMelneaCassBlvd),
(stBartlettStatJohnElliotSq)-[:trip {trip_count: 1, duration: 1028.0, distance: 2.783413614495326}]->(stHarrisonAveatMullinsWay),
(stBartlettStatJohnElliotSq)-[:trip {trip_count: 2, duration: 236.0, distance: 1.0060308400905802}]->(stStAlphonsusStatTremontSt),
(stBelgradeAveatWalworthSt)-[:trip {trip_count: 1, duration: 844.0, distance: 2.458420673635654}]->(stForestHills),
(stBenningtonStatByronSt)-[:trip {trip_count: 4, duration: 290.5, distance: 1.058667139578292}]->(stDaySq),
(stBenningtonStatByronSt)-[:trip {trip_count: 1, duration: 505.0, distance: 1.7183299111423034}]->(stAirportTStopBremenStatBrooksSt),
(stBlossomStatCharlesSt)-[:trip {trip_count: 3, duration: 1036.0, distance: 1.0169436013734374}]->(stMugarWayatBeaconSt),
(stBlossomStatCharlesSt)-[:trip {trip_count: 4, duration: 648.0, distance: 1.7706423482660032}]->(stHarrisonAveatBennetSt),
(stBlossomStatCharlesSt)-[:trip {trip_count: 1, duration: 730.0, distance: -1}]->(stMITatMassAveAmherstSt),
(stBlossomStatCharlesSt)-[:trip {trip_count: 1, duration: 1467.0, distance: 3.9145038708215854}]->(stHuntingtonAveatMassArt),
(stBlossomStatCharlesSt)-[:trip {trip_count: 7, duration: 733.0, distance: 1.7275143486385547}]->(stCopleySquareDartmouthStatBoylstonSt),
(stBlossomStatCharlesSt)-[:trip {trip_count: 6, duration: 686.5, distance: 1.538697590382459}]->(stLewisWharfatAtlanticAve),
(stBlossomStatCharlesSt)-[:trip {trip_count: 1, duration: 1256.0, distance: 2.79790399760308}]->(stHarrisonAveatEDedhamSt),
(stBlossomStatCharlesSt)-[:trip {trip_count: 6, duration: 447.5, distance: 1.400706806023034}]->(stParkPlazaatCharlesStS),
(stBlossomStatCharlesSt)-[:trip {trip_count: 2, duration: 631.0, distance: -1}]->(stOneKendallSquareatHampshireStPortlandSt),
(stBlossomStatCharlesSt)-[:trip {trip_count: 1, duration: 593.0, distance: -1}]->(stMITHaywardStatAmherstSt),
(stBlossomStatCharlesSt)-[:trip {trip_count: 1, duration: 717.0, distance: 1.5004229990852604}]->(stBoylstonStatBerkeleySt),
(stBlossomStatCharlesSt)-[:trip {trip_count: 4, duration: 371.5, distance: -1}]->(stOneMemorialDrive),
(stBlossomStatCharlesSt)-[:trip {trip_count: 1, duration: 504.0, distance: 1.5894983610414202}]->(stSurfaceRdatIndiaSt),
(stBlossomStatCharlesSt)-[:trip {trip_count: 1, duration: 781.0, distance: -1}]->(stGalileoGalileiWayatMainStreet),
(stBlossomStatCharlesSt)-[:trip {trip_count: 6, duration: 687.5, distance: 1.6720173441706256}]->(stChinatownGatePlaza),
(stBlossomStatCharlesSt)-[:trip {trip_count: 1, duration: 752.0, distance: -1}]->(stBoylstonStatCharlesStTempWinterLocation),
(stBlossomStatCharlesSt)-[:trip {trip_count: 4, duration: 884.5, distance: 2.022988645892999}]->(stBoylstonStatFairfieldSt),
(stBlossomStatCharlesSt)-[:trip {trip_count: 1, duration: 949.0, distance: -1}]->(stUniversityPark),
(stBlossomStatCharlesSt)-[:trip {trip_count: 1, duration: 222.0, distance: -1}]->(stMuseumofScience),
(stBlossomStatCharlesSt)-[:trip {trip_count: 1, duration: 1772.0, distance: 5.245985782085146}]->(stJacksonSquareTStop),
(stBlossomStatCharlesSt)-[:trip {trip_count: 3, duration: 559.0, distance: 1.4181204962406573}]->(stBroadStatCentralSt),
(stBlossomStatCharlesSt)-[:trip {trip_count: 1, duration: 1308.0, distance: 2.181707447519949}]->(stPrudentialCenter101HuntingtonAve),
(stBlossomStatCharlesSt)-[:trip {trip_count: 1, duration: 825.0, distance: 2.1185416163567945}]->(stInkBlockHarrisonAveatHeraldSt),
(stBlossomStatCharlesSt)-[:trip {trip_count: 3, duration: 549.0, distance: 0.493860389423618}]->(stCambridgeStatJoySt),
(stBlossomStatCharlesSt)-[:trip {trip_count: 2, duration: 690.0, distance: 1.444832229691941}]->(stChinatownTStop),
(stBlossomStatCharlesSt)-[:trip {trip_count: 1, duration: 1203.0, distance: 3.034996749829092}]->(stSilberWay),
(stBlossomStatCharlesSt)-[:trip {trip_count: 2, duration: 1031.5, distance: 3.1447821767093487}]->(stLansdowneTStop),
(stBlossomStatCharlesSt)-[:trip {trip_count: 1, duration: 330.0, distance: -1}]->(stAmesStatBroadway),
(stBlossomStatCharlesSt)-[:trip {trip_count: 1, duration: 449.0, distance: 1.130482398837346}]->(stWarrenStatChelseaSt),
(stBlossomStatCharlesSt)-[:trip {trip_count: 1, duration: 888.0, distance: 1.8314743271362088}]->(stBoylstonStatExeterSt),
(stBlossomStatCharlesSt)-[:trip {trip_count: 3, duration: 1707.0, distance: 4.519677104463682}]->(stInnovationLab125WesternAveatBattenWay),
(stBlossomStatCharlesSt)-[:trip {trip_count: 2, duration: 288.5, distance: 0.7201686592871582}]->(stCanalStatCausewaySt),
(stBlossomStatCharlesSt)-[:trip {trip_count: 1, duration: 785.0, distance: -1}]->(stCambridgeDeptofPublicWorks147HampshireSt),
(stBlossomStatCharlesSt)-[:trip {trip_count: 3, duration: 324.0, distance: -1}]->(stOneBroadwayKendallSqatMainSt3rdSt),
(stBlossomStatCharlesSt)-[:trip {trip_count: 2, duration: 1544.5, distance: 3.5392964825050557}]->(stLandmarkCenterBrooklineAveatParkDr),
(stBlossomStatCharlesSt)-[:trip {trip_count: 3, duration: 647.0, distance: -1}]->(stKendallT),
(stBlossomStatCharlesSt)-[:trip {trip_count: 1, duration: 642.0, distance: 1.262081138900898}]->(stMainStatThompsonSq),
(stBlossomStatCharlesSt)-[:trip {trip_count: 3, duration: 336.0, distance: -1}]->(stCambridgeCrossingatNorthFirstStreet),
(stBlossomStatCharlesSt)-[:trip {trip_count: 1, duration: 796.0, distance: 1.3159835582328547}]->(stMainStatAustinSt),
(stBlossomStatCharlesSt)-[:trip {trip_count: 1, duration: 988.0, distance: 2.7967895890378096}]->(stMassAveTStation),
(stBlossomStatCharlesSt)-[:trip {trip_count: 1, duration: 604.0, distance: 1.7795124277997856}]->(stSouthStation700AtlanticAve),
(stBlossomStatCharlesSt)-[:trip {trip_count: 2, duration: 807.5, distance: 1.8990392853967601}]->(stBackBayTStopDartmouthStatStuartSt),
(stBlossomStatCharlesSt)-[:trip {trip_count: 1, duration: 1505.0, distance: 3.2829427855693423}]->(stForsythStatHuntingtonAve),
(stBlossomStatCharlesSt)-[:trip {trip_count: 1, duration: 1128.0, distance: 3.8039770852279333}]->(stIDBuildingWest),
(stBlossomStatCharlesSt)-[:trip {trip_count: 2, duration: 960.5, distance: 0.4617991696138438}]->(stNashuaStreetatRedAuerbachWay),
(stBlossomStatCharlesSt)-[:trip {trip_count: 1, duration: 1513.0, distance: -1}]->(stConwayParkSomervilleAvenue),
(stBlossomStatCharlesSt)-[:trip {trip_count: 1, duration: 957.0, distance: 2.355300967908924}]->(stBoylstonStatMassachusettsAve),
(stBlossomStatCharlesSt)-[:trip {trip_count: 1, duration: 823.0, distance: 2.4234549782483508}]->(stWatermarkSeaportBostonWharfRdatSeaportBlvd),
(stBlossomStatCharlesSt)-[:trip {trip_count: 2, duration: 1076.0, distance: 2.302092907676618}]->(stSpauldingRehabilitationHospitalCharlestownNavyYard),
(stBlossomStatCharlesSt)-[:trip {trip_count: 1, duration: 623.0, distance: 1.6601003595997892}]->(stSurfaceRdatSummerSt),
(stBlossomStatCharlesSt)-[:trip {trip_count: 1, duration: 1403.0, distance: -1}]->(stCambridgeMainLibraryatBroadwayTrowbridgeSt),
(stBlossomStatCharlesSt)-[:trip {trip_count: 1, duration: 406.0, distance: 1.0733576514020022}]->(stTremontStatHamiltonPl),
(stBlueHillAveatHavelockSt)-[:trip {trip_count: 1, duration: 2576.0, distance: 7.227469083176414}]->(stStuartStatBerkeleySt),
(stBostonCityHall28StateSt)-[:trip {trip_count: 19, duration: 469.0, distance: 1.607067450566884}]->(stHarrisonAveatMullinsWay),
(stBostonCityHall28StateSt)-[:trip {trip_count: 3, duration: 739.0, distance: 1.9690127302691847}]->(stBackBayTStopDartmouthStatStuartSt),
(stBostonCityHall28StateSt)-[:trip {trip_count: 1, duration: 718.0, distance: 2.879015808974013}]->(stMassAveTStation),
(stBostonCityHall28StateSt)-[:trip {trip_count: 6, duration: 581.5, distance: 2.139736149494465}]->(stWashingtonStatWalthamSt),
(stBostonCityHall28StateSt)-[:trip {trip_count: 34, duration: 751.0, distance: 2.6395632252924495}]->(stWashingtonStatRutlandSt),
(stBostonCityHall28StateSt)-[:trip {trip_count: 6, duration: 842.5, distance: 2.4090125692855797}]->(stHarrisonAveatEDedhamSt),
(stBostonCityHall28StateSt)-[:trip {trip_count: 8, duration: 107.0, distance: 0.20452739876172302}]->(stGovernmentCenterCambridgeStatCourtSt),
(stBostonCityHall28StateSt)-[:trip {trip_count: 6, duration: 745.0, distance: 2.5137441774639884}]->(stSouthEndLibraryTremontStatWNewtonSt),
(stBostonCityHall28StateSt)-[:trip {trip_count: 5, duration: 361.0, distance: 1.119650698444971}]->(stStuartStatCharlesSt),
(stBostonCityHall28StateSt)-[:trip {trip_count: 12, duration: 709.0, distance: 1.9070804115611841}]->(stCopleySquareDartmouthStatBoylstonSt),
(stBostonCityHall28StateSt)-[:trip {trip_count: 16, duration: 599.5, distance: 1.7980661923309116}]->(stTremontStatEBerkeleySt),
(stBostonCityHall28StateSt)-[:trip {trip_count: 22, duration: 259.0, distance: 0.6808091490765276}]->(stCambridgeStatJoySt),
(stBostonCityHall28StateSt)-[:trip {trip_count: 3, duration: 458.0, distance: 2.036057402779569}]->(stCongressStatNorthernAve),
(stBostonCityHall28StateSt)-[:trip {trip_count: 6, duration: 426.0, distance: 1.005634481182289}]->(stSeaportBlvdatSleeperSt),
(stBostonCityHall28StateSt)-[:trip {trip_count: 4, duration: 449.5, distance: 1.5506806473303194}]->(stBoylstonStatBerkeleySt),
(stBostonCityHall28StateSt)-[:trip {trip_count: 1, duration: 2164.0, distance: 4.201719404843846}]->(stHuntingtonAveatMassArt),
(stBostonCityHall28StateSt)-[:trip {trip_count: 21, duration: 180.0, distance: 0.4512928968092432}]->(stCrossStatHanoverSt),
(stBostonCityHall28StateSt)-[:trip {trip_count: 2, duration: 440.0, distance: 1.1497509706173106}]->(stParkPlazaatCharlesStS),
(stBostonCityHall28StateSt)-[:trip {trip_count: 9, duration: 340.0, distance: 0.6622955713131884}]->(stValentiWayatHaverhillSt),
(stBostonCityHall28StateSt)-[:trip {trip_count: 4, duration: 1457.0, distance: 4.046614921518371}]->(stLandmarkCenterBrooklineAveatParkDr),
(stBostonCityHall28StateSt)-[:trip {trip_count: 3, duration: 111.0, distance: 0.1667721922922354}]->(stCongressStatBostonCityHall),
(stBostonCityHall28StateSt)-[:trip {trip_count: 9, duration: 862.0, distance: 2.323417306191584}]->(stBoylstonStatFairfieldSt),
(stBostonCityHall28StateSt)-[:trip {trip_count: 9, duration: 474.0, distance: 1.2755675225853553}]->(stWatermarkSeaportBostonWharfRdatSeaportBlvd),
(stBostonCityHall28StateSt)-[:trip {trip_count: 3, duration: 620.0, distance: 1.6013445579516126}]->(stStuartStatBerkeleySt),
(stBostonCityHall28StateSt)-[:trip {trip_count: 5, duration: 705.0, distance: 1.9416513418036845}]->(stMainStatAustinSt),
(stBostonCityHall28StateSt)-[:trip {trip_count: 6, duration: 449.0, distance: 1.1335053802747477}]->(stCharlesCircleCharlesStatCambridgeSt),
(stBostonCityHall28StateSt)-[:trip {trip_count: 7, duration: 733.0, distance: 2.2102999521026248}]->(stColumbusAveatWCantonSt),
(stBostonCityHall28StateSt)-[:trip {trip_count: 4, duration: 504.5, distance: 1.7268104381296634}]->(stSeaportHotelCongressStatSeaportLn),
(stBostonCityHall28StateSt)-[:trip {trip_count: 1, duration: 1479.0, distance: -1}]->(st191BeaconSt),
(stBostonCityHall28StateSt)-[:trip {trip_count: 8, duration: 1131.0, distance: 3.4798271336188216}]->(stForsythStatHuntingtonAve),
(stBostonCityHall28StateSt)-[:trip {trip_count: 12, duration: 423.5, distance: 1.3262508850060346}]->(stShawmutAveatOakStW),
(stBostonCityHall28StateSt)-[:trip {trip_count: 3, duration: 333.0, distance: -1}]->(stBoylstonStatCharlesStTempWinterLocation),
(stBostonCityHall28StateSt)-[:trip {trip_count: 1, duration: 383.0, distance: 0.8531169972877454}]->(stChinatownGatePlaza),
(stBostonCityHall28StateSt)-[:trip {trip_count: 1, duration: 1011.0, distance: 3.6274610032058896}]->(stBoylstonStatJerseySt),
(stBostonCityHall28StateSt)-[:trip {trip_count: 5, duration: 760.0, distance: 2.2740527734043865}]->(stTremontStatWDedhamSt),
(stBostonCityHall28StateSt)-[:trip {trip_count: 4, duration: 789.5, distance: 2.072877760790891}]->(stBoylstonStatExeterSt),
(stBostonCityHall28StateSt)-[:trip {trip_count: 5, duration: 346.0, distance: 0.9278694927624255}]->(stNashuaStreetatRedAuerbachWay),
(stBostonCityHall28StateSt)-[:trip {trip_count: 1, duration: 1574.0, distance: 4.268315847725112}]->(stBUCentral725CommAve),
(stBostonCityHall28StateSt)-[:trip {trip_count: 1, duration: 1200.0, distance: -1}]->(stSennottParkBroadwayatNorfolkStreet),
